"ID","Etat","Département","Station","Longitude","Latitude","Elevation","Derniere_Activite","Source","Code","Licence","URL_Licence"
"07005","FR","80","Abbeville",1.834,50.136,69,"2025-11-16T15:00:00Z","METEO-FRANCE",0,"Etalab Open License","https://www.etalab.gouv.fr/wp-content/uploads/2017/04/ETALAB-Licence-Ouverte-v2.0.pdf"
"07015","FR","59","Lille-Lesquin",3.0975,50.57,47,"2025-11-16T15:00:00Z","METEO-FRANCE",0,"Etalab Open License","https://www.etalab.gouv.fr/wp-content/uploads/2017/04/ETALAB-Licence-Ouverte-v2.0.pdf"
"07020","FR","50","Cap de La Hague",-1.939833,49.725167,6,"2025-11-16T15:00:00Z","METEO-FRANCE",0,"Etalab Open License","https://www.etalab.gouv.fr/wp-content/uploads/2017/04/ETALAB-Licence-Ouverte-v2.0.pdf"
"07027","FR","14","Caen-Carpiquet",-0.456167,49.18,67,"2025-11-16T15:00:00Z","METEO-FRANCE",0,"Etalab Open License","https://www.etalab.gouv.fr/wp-content/uploads/2017/04/ETALAB-Licence-Ouverte-v2.0.pdf"
"07037","FR","76","Rouen-Boos",1.178333,49.3895,156,"2025-11-16T15:00:00Z","METEO-FRANCE",0,"Etalab Open License","https://www.etalab.gouv.fr/wp-content/uploads/2017/04/ETALAB-Licence-Ouverte-v2.0.pdf"
"07070","FR","51","Reims-Champagne",4.03299999237061,49.299999237060504,91,"0000-00-00T00:00:00Z","METEO-FRANCE",0,"Etalab Open License","https://www.etalab.gouv.fr/wp-content/uploads/2017/04/ETALAB-Licence-Ouverte-v2.0.pdf"
"07110","FR","29","Brest-Guipavas",-4.391167,48.453833,92,"2025-11-16T15:00:00Z","METEO-FRANCE",0,"Etalab Open License","https://www.etalab.gouv.fr/wp-content/uploads/2017/04/ETALAB-Licence-Ouverte-v2.0.pdf"
"07117","FR","22","Ploumanac'h - Perros",-3.473167,48.825833,55,"2025-11-16T15:00:00Z","METEO-FRANCE",0,"Etalab Open License","https://www.etalab.gouv.fr/wp-content/uploads/2017/04/ETALAB-Licence-Ouverte-v2.0.pdf"
"07130","FR","35","Rennes-St Jacques",-1.734,48.068833,36,"2025-11-16T15:00:00Z","METEO-FRANCE",0,"Etalab Open License","https://www.etalab.gouv.fr/wp-content/uploads/2017/04/ETALAB-Licence-Ouverte-v2.0.pdf"
"07139","FR","61","Alençon - Valframbert",0.110167,48.4455,143,"2025-11-16T15:00:00Z","METEO-FRANCE",0,"Etalab Open License","https://www.etalab.gouv.fr/wp-content/uploads/2017/04/ETALAB-Licence-Ouverte-v2.0.pdf"
"07149","FR","91","Orly - Athis-Mons",2.397,48.718,86,"2025-11-16T15:00:00Z","METEO-FRANCE",0,"Etalab Open License","https://www.etalab.gouv.fr/wp-content/uploads/2017/04/ETALAB-Licence-Ouverte-v2.0.pdf"
"07168","FR","10","Troyes-Barberey",4.02,48.324667,112,"2025-11-16T15:00:00Z","METEO-FRANCE",0,"Etalab Open License","https://www.etalab.gouv.fr/wp-content/uploads/2017/04/ETALAB-Licence-Ouverte-v2.0.pdf"
"07181","FR","54","Nancy-Ochey",5.959833,48.581,336,"2025-11-16T15:00:00Z","METEO-FRANCE",0,"Etalab Open License","https://www.etalab.gouv.fr/wp-content/uploads/2017/04/ETALAB-Licence-Ouverte-v2.0.pdf"
"07190","FR","67","Strasbourg-Entzheim",7.640333,48.5495,150,"2025-11-16T15:00:00Z","METEO-FRANCE",0,"Etalab Open License","https://www.etalab.gouv.fr/wp-content/uploads/2017/04/ETALAB-Licence-Ouverte-v2.0.pdf"
"07207","FR","56","Belle Ile-Le Talut",-3.218333,47.294333,34,"2025-11-16T15:00:00Z","METEO-FRANCE",0,"Etalab Open License","https://www.etalab.gouv.fr/wp-content/uploads/2017/04/ETALAB-Licence-Ouverte-v2.0.pdf"
"07222","FR","44","Nantes-Atlantique",-1.608833,47.15,26,"2025-11-16T15:00:00Z","METEO-FRANCE",0,"Etalab Open License","https://www.etalab.gouv.fr/wp-content/uploads/2017/04/ETALAB-Licence-Ouverte-v2.0.pdf"
"07240","FR","37","Tours - Parcay-Meslay",0.727333,47.4445,108,"2025-11-16T15:00:00Z","METEO-FRANCE",0,"Etalab Open License","https://www.etalab.gouv.fr/wp-content/uploads/2017/04/ETALAB-Licence-Ouverte-v2.0.pdf"
"07255","FR","18","Bourges",2.359833,47.059167,161,"2025-11-16T15:00:00Z","METEO-FRANCE",0,"Etalab Open License","https://www.etalab.gouv.fr/wp-content/uploads/2017/04/ETALAB-Licence-Ouverte-v2.0.pdf"
"07280","FR","21","Dijon-Longvic",5.088333,47.267833,219,"2025-11-16T15:00:00Z","METEO-FRANCE",0,"Etalab Open License","https://www.etalab.gouv.fr/wp-content/uploads/2017/04/ETALAB-Licence-Ouverte-v2.0.pdf"
"07299","FR","68","Bâle-Mulhouse",7.51,47.614333,263,"2025-11-16T15:00:00Z","METEO-FRANCE",0,"Etalab Open License","https://www.etalab.gouv.fr/wp-content/uploads/2017/04/ETALAB-Licence-Ouverte-v2.0.pdf"
"07314","FR","17","Pointe de Chassiron",-1.411667,46.046833,11,"2025-11-16T15:00:00Z","METEO-FRANCE",0,"Etalab Open License","https://www.etalab.gouv.fr/wp-content/uploads/2017/04/ETALAB-Licence-Ouverte-v2.0.pdf"
"07335","FR","86","Poitiers-Biard",0.314333,46.593833,125,"2025-11-16T15:00:00Z","METEO-FRANCE",0,"Etalab Open License","https://www.etalab.gouv.fr/wp-content/uploads/2017/04/ETALAB-Licence-Ouverte-v2.0.pdf"
"07434","FR","87","Limoges-Bellegarde",1.175,45.861167,402,"2025-11-16T15:00:00Z","METEO-FRANCE",0,"Etalab Open License","https://www.etalab.gouv.fr/wp-content/uploads/2017/04/ETALAB-Licence-Ouverte-v2.0.pdf"
"07460","FR","63","Clermont-Ferrand - Aulnat",3.149333,45.786833,331,"2025-11-16T15:00:00Z","METEO-FRANCE",0,"Etalab Open License","https://www.etalab.gouv.fr/wp-content/uploads/2017/04/ETALAB-Licence-Ouverte-v2.0.pdf"
"07471","FR","43","Le Puy-Loudes",3.764,45.0745,833,"2025-11-16T15:00:00Z","METEO-FRANCE",0,"Etalab Open License","https://www.etalab.gouv.fr/wp-content/uploads/2017/04/ETALAB-Licence-Ouverte-v2.0.pdf"
"07481","FR","69","Lyon-St Exupéry",5.077833,45.7265,235,"2025-11-16T15:00:00Z","METEO-FRANCE",0,"Etalab Open License","https://www.etalab.gouv.fr/wp-content/uploads/2017/04/ETALAB-Licence-Ouverte-v2.0.pdf"
"07510","FR","33","Bordeaux-Mérignac",-0.691333,44.830667,47,"2025-11-16T15:00:00Z","METEO-FRANCE",0,"Etalab Open License","https://www.etalab.gouv.fr/wp-content/uploads/2017/04/ETALAB-Licence-Ouverte-v2.0.pdf"
"07535","FR","46","Gourdon",1.396667,44.745,260,"2025-11-16T15:00:00Z","METEO-FRANCE",0,"Etalab Open License","https://www.etalab.gouv.fr/wp-content/uploads/2017/04/ETALAB-Licence-Ouverte-v2.0.pdf"
"07558","FR","12","Millau - Soulobres",3.0195,44.1185,712,"2025-11-16T15:00:00Z","METEO-FRANCE",0,"Etalab Open License","https://www.etalab.gouv.fr/wp-content/uploads/2017/04/ETALAB-Licence-Ouverte-v2.0.pdf"
"07577","FR","26","Montélimar - Ancone",4.733,44.581167,73,"2025-11-16T02:00:00Z","METEO-FRANCE",0,"Etalab Open License","https://www.etalab.gouv.fr/wp-content/uploads/2017/04/ETALAB-Licence-Ouverte-v2.0.pdf"
"07591","FR","5","Embrun",6.508667,44.571167,873,"2025-11-16T15:00:00Z","METEO-FRANCE",0,"Etalab Open License","https://www.etalab.gouv.fr/wp-content/uploads/2017/04/ETALAB-Licence-Ouverte-v2.0.pdf"
"07607","FR","40","Mont-de-Marsan",-0.500167,43.909833,59,"2025-11-16T15:00:00Z","METEO-FRANCE",0,"Etalab Open License","https://www.etalab.gouv.fr/wp-content/uploads/2017/04/ETALAB-Licence-Ouverte-v2.0.pdf"
"07621","FR","65","Tarbes - Ossun - Lourdes",0,43.188,360,"2025-11-16T15:00:00Z","METEO-FRANCE",0,"Etalab Open License","https://www.etalab.gouv.fr/wp-content/uploads/2017/04/ETALAB-Licence-Ouverte-v2.0.pdf"
"07627","FR","9","Saint-Girons - Antichan",1.106833,43.005333,414,"2025-11-16T15:00:00Z","METEO-FRANCE",0,"Etalab Open License","https://www.etalab.gouv.fr/wp-content/uploads/2017/04/ETALAB-Licence-Ouverte-v2.0.pdf"
"07630","FR","31","Toulouse-Blagnac",1.378833,43.621,151,"2025-11-16T15:00:00Z","METEO-FRANCE",0,"Etalab Open License","https://www.etalab.gouv.fr/wp-content/uploads/2017/04/ETALAB-Licence-Ouverte-v2.0.pdf"
"07643","FR","34","Montpellier - Fréjorgues",3.964667,43.576167,1,"2025-11-16T15:00:00Z","METEO-FRANCE",0,"Etalab Open License","https://www.etalab.gouv.fr/wp-content/uploads/2017/04/ETALAB-Licence-Ouverte-v2.0.pdf"
"07650","FR","13","Marseille-Marignane (Marseille Provence)",5.216,43.437667,9,"2025-11-16T15:00:00Z","METEO-FRANCE",0,"Etalab Open License","https://www.etalab.gouv.fr/wp-content/uploads/2017/04/ETALAB-Licence-Ouverte-v2.0.pdf"
"07661","FR","83","Saint-Mandrier-sur-Mer - Cap Cépet",5.940833,43.079333,115,"2025-01-13T11:00:00Z","METEO-FRANCE",0,"Etalab Open License","https://www.etalab.gouv.fr/wp-content/uploads/2017/04/ETALAB-Licence-Ouverte-v2.0.pdf"
"07690","FR","6","Nice - Côte d'Azur",7.209,43.648833,2,"2025-11-16T15:00:00Z","METEO-FRANCE",0,"Etalab Open License","https://www.etalab.gouv.fr/wp-content/uploads/2017/04/ETALAB-Licence-Ouverte-v2.0.pdf"
"07747","FR","66","Perpignan - Rivesaltes",2.872833,42.737167,42,"2025-11-16T15:00:00Z","METEO-FRANCE",0,"Etalab Open License","https://www.etalab.gouv.fr/wp-content/uploads/2017/04/ETALAB-Licence-Ouverte-v2.0.pdf"
"07761","FR","20","Ajaccio - Campo dell'Oro",8.792667,41.918,5,"2025-11-16T15:00:00Z","METEO-FRANCE",0,"Etalab Open License","https://www.etalab.gouv.fr/wp-content/uploads/2017/04/ETALAB-Licence-Ouverte-v2.0.pdf"
"07790","FR","20","Bastia - Poretta",9.485167,42.540667,10,"2025-11-16T15:00:00Z","METEO-FRANCE",0,"Etalab Open License","https://www.etalab.gouv.fr/wp-content/uploads/2017/04/ETALAB-Licence-Ouverte-v2.0.pdf"
"VENTOUX","FR","84","Mont-Ventoux (sommet)",5.278959,44.174607,1910,"0000-00-00T00:00:00Z","METEO-FRANCE",0,"Etalab Open License","https://www.etalab.gouv.fr/wp-content/uploads/2017/04/ETALAB-Licence-Ouverte-v2.0.pdf"
"00002","FR","30","Le Vigan",3.60158,43.98956,245,"2025-11-16T15:20:00Z","infoclimat.fr",2,"NON-COMMERCIAL ONLY: CC BY NC","https://creativecommons.org/licenses/by-nc/2.0/fr/"
"00003","FR","83","Besse sur Issole",6.17,43.34,275,"2025-11-16T15:20:00Z","infoclimat.fr",2,"NON-COMMERCIAL ONLY: CC BY NC","https://creativecommons.org/licenses/by-nc/2.0/fr/"
"00004","FR","26","Granges lès Beaumont",4.98,45.05,155,"2025-11-16T15:20:00Z","infoclimat.fr",1,"CC BY","https://creativecommons.org/licenses/by/2.0/fr/"
"000VQ","FR","07","Dent de Rez",4.5022,44.42884,710,"2025-11-16T15:10:00Z","infoclimat.fr",2,"NON-COMMERCIAL ONLY: CC BY NC","https://creativecommons.org/licenses/by-nc/2.0/fr/"
"00008","FR","59","Steenwerck",2.76999998092651,50.7000007629395,22,"0000-00-00T00:00:00Z","infoclimat.fr",2,"NON-COMMERCIAL ONLY: CC BY NC","https://creativecommons.org/licenses/by-nc/2.0/fr/"
"000J1","FR","60","Senlis",2.58333,49.2,65,"2020-05-09T16:40:00Z","infoclimat.fr",2,"NON-COMMERCIAL ONLY: CC BY NC","https://creativecommons.org/licenses/by-nc/2.0/fr/"
"00009","FR","38","Bouvesse-Quirieu",5.44012,45.78074,222,"2014-10-31T17:00:00Z","infoclimat.fr",2,"NON-COMMERCIAL ONLY: CC BY NC","https://creativecommons.org/licenses/by-nc/2.0/fr/"
"00010","FR","30","Le Grau-du-Roi - Repausset-Levant",4.146814,43.532544,1,"2025-11-16T15:20:00Z","infoclimat.fr",1,"CC BY","https://creativecommons.org/licenses/by/2.0/fr/"
"00014","FR","38","Saint-Martin-d'Hères",5.7667,45.1667,220,"2025-11-16T15:15:00Z","infoclimat.fr",2,"NON-COMMERCIAL ONLY: CC BY NC","https://creativecommons.org/licenses/by-nc/2.0/fr/"
"00015","FR","2B","Corte",9.14999961853027,42.3224983215332,470,"2024-08-14T14:50:00Z","infoclimat.fr",1,"CC BY","https://creativecommons.org/licenses/by/2.0/fr/"
"00018","FR","11","Ferrals-lès-Corbières",2.7333,43.15,72,"2025-11-16T15:00:00Z","infoclimat.fr",1,"CC BY","https://creativecommons.org/licenses/by/2.0/fr/"
"00001","FR","17","Saint-Médard-d'Aunis",-0.96,46.15,20,"2025-11-16T15:20:00Z","infoclimat.fr",1,"CC BY","https://creativecommons.org/licenses/by/2.0/fr/"
"00023","FR","19","Saint-Yrieix-le-Déjalat",1.9667,45.45,750,"2025-11-16T15:20:00Z","infoclimat.fr",2,"NON-COMMERCIAL ONLY: CC BY NC","https://creativecommons.org/licenses/by-nc/2.0/fr/"
"00025","CH","CH","Saint-Triphon",6.98,46.29,441,"2024-11-18T09:00:00Z","infoclimat.fr",1,"CC BY","https://creativecommons.org/licenses/by/2.0/fr/"
"00027","FR","2B","Cardo",9.42797,42.70227,300,"2025-11-16T15:20:00Z","infoclimat.fr",2,"NON-COMMERCIAL ONLY: CC BY NC","https://creativecommons.org/licenses/by-nc/2.0/fr/"
"00029","FR","54","Jarny",5.86932,49.15479,211,"2025-11-16T15:20:00Z","infoclimat.fr",1,"CC BY","https://creativecommons.org/licenses/by/2.0/fr/"
"00032","FR","82","Bressols",1.33333,43.9667,92,"2021-05-23T06:30:00Z","infoclimat.fr",2,"NON-COMMERCIAL ONLY: CC BY NC","https://creativecommons.org/licenses/by-nc/2.0/fr/"
"00033","FR","37","Véretz",0.8,47.3667,50,"2025-11-16T15:10:00Z","infoclimat.fr",2,"NON-COMMERCIAL ONLY: CC BY NC","https://creativecommons.org/licenses/by-nc/2.0/fr/"
"00034","FR","26","Tulette",4.93333,44.2833,120,"2025-10-21T21:30:00Z","infoclimat.fr",2,"NON-COMMERCIAL ONLY: CC BY NC","https://creativecommons.org/licenses/by-nc/2.0/fr/"
"00035","FR","26","Rochegude",4.8297,44.25,107,"2021-09-26T04:00:00Z","infoclimat.fr",1,"CC BY","https://creativecommons.org/licenses/by/2.0/fr/"
"00038","FR","85","Fontenay-le-Comte",-0.81667,46.46667,43,"2021-07-09T08:30:00Z","infoclimat.fr",1,"CC BY","https://creativecommons.org/licenses/by/2.0/fr/"
"00039","FR","38","Le-Péage-de-Roussillon - Plateau de Louze",4.7969,45.3756,256,"0000-00-00T00:00:00Z","infoclimat.fr",2,"NON-COMMERCIAL ONLY: CC BY NC","https://creativecommons.org/licenses/by-nc/2.0/fr/"
"00041","FR","22","Lamballe",-2.51667,48.42667,55,"2025-11-16T15:20:00Z","infoclimat.fr",1,"CC BY","https://creativecommons.org/licenses/by/2.0/fr/"
"00042","FR","45","Sandillon",2.0339,47.8456,100,"2025-11-16T15:20:00Z","infoclimat.fr",1,"CC BY","https://creativecommons.org/licenses/by/2.0/fr/"
"00047","FR","29","Plabennec",-4.425,48.5033,80,"2025-11-16T15:20:00Z","infoclimat.fr",2,"NON-COMMERCIAL ONLY: CC BY NC","https://creativecommons.org/licenses/by-nc/2.0/fr/"
"00049","FR","48","Saint-Symphorien - Verrières",3.6256,44.84,1220,"2025-11-16T15:20:00Z","infoclimat.fr",2,"NON-COMMERCIAL ONLY: CC BY NC","https://creativecommons.org/licenses/by-nc/2.0/fr/"
"00051","FR","17","Cramchaban",-0.722149,46.2193,10,"0000-00-00T00:00:00Z","infoclimat.fr",1,"CC BY","https://creativecommons.org/licenses/by/2.0/fr/"
"00052","FR","59","Armentières",2.8767,50.6886,16,"2025-06-10T05:50:00Z","infoclimat.fr",1,"CC BY","https://creativecommons.org/licenses/by/2.0/fr/"
"00054","FR","57","Corny-sur-Moselle",6.055566,49.030046,180,"2025-11-16T15:20:00Z","infoclimat.fr",1,"CC BY","https://creativecommons.org/licenses/by/2.0/fr/"
"00057","FR","83","Toulon-Le Baou",5.9336,43.1267,118,"2025-11-16T15:15:00Z","infoclimat.fr",1,"CC BY","https://creativecommons.org/licenses/by/2.0/fr/"
"00059","FR","79","Niort",-0.4625,46.3244,16,"2025-11-16T15:20:00Z","infoclimat.fr",1,"CC BY","https://creativecommons.org/licenses/by/2.0/fr/"
"00053","FR","33","La Réole",-0.0619,44.5961,50,"2013-12-27T16:50:00Z","infoclimat.fr",2,"NON-COMMERCIAL ONLY: CC BY NC","https://creativecommons.org/licenses/by-nc/2.0/fr/"
"00060","FR","33","Canéjan",-0.6522,44.7636,49,"2025-11-16T15:20:00Z","infoclimat.fr",2,"NON-COMMERCIAL ONLY: CC BY NC","https://creativecommons.org/licenses/by-nc/2.0/fr/"
"00063","FR","33","La Teste de Buch",-1.1442,44.6328,10,"2025-11-16T15:20:00Z","infoclimat.fr",2,"NON-COMMERCIAL ONLY: CC BY NC","https://creativecommons.org/licenses/by-nc/2.0/fr/"
"00061","FR","91","Evry-Courcouronnes",2.4081,48.6183,80,"2025-11-16T15:20:00Z","infoclimat.fr",2,"NON-COMMERCIAL ONLY: CC BY NC","https://creativecommons.org/licenses/by-nc/2.0/fr/"
"00065","FR","64","Soumoulou",-0.1875,43.2656,290,"2025-11-16T15:20:00Z","infoclimat.fr",2,"NON-COMMERCIAL ONLY: CC BY NC","https://creativecommons.org/licenses/by-nc/2.0/fr/"
"00067","FR","79","Melle",-0.1431,46.2233,145,"0000-00-00T00:00:00Z","infoclimat.fr",2,"NON-COMMERCIAL ONLY: CC BY NC","https://creativecommons.org/licenses/by-nc/2.0/fr/"
"00070","FR","57","Montigny-lès-Metz",6.1831,49.1092,182,"1999-11-29T22:00:00Z","infoclimat.fr",2,"NON-COMMERCIAL ONLY: CC BY NC","https://creativecommons.org/licenses/by-nc/2.0/fr/"
"00072","FR","05","Briançon",6.635556,44.896389,1320,"0000-00-00T00:00:00Z","infoclimat.fr",2,"NON-COMMERCIAL ONLY: CC BY NC","https://creativecommons.org/licenses/by-nc/2.0/fr/"
"00074","FR","50","Saint-Jean-de-la-Haize",-1.3617,48.7,22,"2025-11-16T15:20:00Z","infoclimat.fr",2,"NON-COMMERCIAL ONLY: CC BY NC","https://creativecommons.org/licenses/by-nc/2.0/fr/"
"00075","FR","13","Peypin",5.5514,43.391332,300,"2025-11-16T15:20:00Z","infoclimat.fr",2,"NON-COMMERCIAL ONLY: CC BY NC","https://creativecommons.org/licenses/by-nc/2.0/fr/"
"00076","FR","38","Le-Péage-de-Roussillon",4.7969,45.3756,156,"2013-08-07T15:00:00Z","infoclimat.fr",2,"NON-COMMERCIAL ONLY: CC BY NC","https://creativecommons.org/licenses/by-nc/2.0/fr/"
"00081","FR","78","Verneuil-sur-Seine",1.9733,48.9811,40,"2025-07-15T06:40:00Z","infoclimat.fr",2,"NON-COMMERCIAL ONLY: CC BY NC","https://creativecommons.org/licenses/by-nc/2.0/fr/"
"00080","FR","17","Angliers",-0.9514,46.2111,5,"2018-01-02T11:20:00Z","infoclimat.fr",1,"CC BY","https://creativecommons.org/licenses/by/2.0/fr/"
"00083","FR","05","Saint-Véran",6.8678,44.7014,2040,"2020-06-04T20:10:00Z","infoclimat.fr",1,"CC BY","https://creativecommons.org/licenses/by/2.0/fr/"
"00086","FR","56","Saint-Malo-des-Trois-Fontaines",-2.470833,48.013889,60,"2025-11-16T15:10:00Z","infoclimat.fr",1,"CC BY","https://creativecommons.org/licenses/by/2.0/fr/"
"00088","FR","84","Orange Centre",4.81,44.1369,44,"2022-09-04T22:00:00Z","infoclimat.fr",2,"NON-COMMERCIAL ONLY: CC BY NC","https://creativecommons.org/licenses/by-nc/2.0/fr/"
"00089","FR","91","Villemoisson-sur-Orge",2.3336,48.6875,80,"2025-11-16T15:00:00Z","infoclimat.fr",1,"CC BY","https://creativecommons.org/licenses/by/2.0/fr/"
"00091","BE","","Namur - Floriffoux",4.774342,50.458344,116,"2025-11-16T15:15:00Z","infoclimat.fr",1,"CC BY","https://creativecommons.org/licenses/by/2.0/fr/"
"00092","FR","22","Mûr-de-Bretagne",-2.9858,48.2019,160,"0000-00-00T00:00:00Z","infoclimat.fr",2,"NON-COMMERCIAL ONLY: CC BY NC","https://creativecommons.org/licenses/by-nc/2.0/fr/"
"00093","FR","83","Brignoles Ouest",6.02975875139236,43.4170753888361,275,"2018-04-04T08:50:00Z","infoclimat.fr",2,"NON-COMMERCIAL ONLY: CC BY NC","https://creativecommons.org/licenses/by-nc/2.0/fr/"
"00094","FR","38","Miribel-les-Echelles",5.70917,45.42917,760,"2025-11-16T15:20:00Z","infoclimat.fr",1,"CC BY","https://creativecommons.org/licenses/by/2.0/fr/"
"00095","FR","29","Quimper",-4.1092,47.995,30,"0000-00-00T00:00:00Z","infoclimat.fr",2,"NON-COMMERCIAL ONLY: CC BY NC","https://creativecommons.org/licenses/by-nc/2.0/fr/"
"00096","FR","74","Le-Sappey (Mt Salève)",6.1669,46.0889,900,"2025-11-16T15:15:00Z","infoclimat.fr",2,"NON-COMMERCIAL ONLY: CC BY NC","https://creativecommons.org/licenses/by-nc/2.0/fr/"
"00098","FR","29","Plouguerneau",-4.5,48.6,12,"2025-11-16T15:20:00Z","infoclimat.fr",1,"CC BY","https://creativecommons.org/licenses/by/2.0/fr/"
"00099","FR","74","Crempigny-Bonneguête",5.90361,45.9525,502,"2025-11-16T15:20:00Z","infoclimat.fr",2,"NON-COMMERCIAL ONLY: CC BY NC","https://creativecommons.org/licenses/by-nc/2.0/fr/"
"000A1","FR","86","Cernay",0.3,46.83,81,"2025-11-16T15:20:00Z","infoclimat.fr",2,"NON-COMMERCIAL ONLY: CC BY NC","https://creativecommons.org/licenses/by-nc/2.0/fr/"
"000A3","FR","84","Entrechaux",5.1,44.2,305,"2023-11-16T10:30:00Z","infoclimat.fr",2,"NON-COMMERCIAL ONLY: CC BY NC","https://creativecommons.org/licenses/by-nc/2.0/fr/"
"000A6","CH","CH","Leysin",7.025,46.3545,1360,"2025-07-03T22:00:00Z","infoclimat.fr",1,"CC BY","https://creativecommons.org/licenses/by/2.0/fr/"
"000A5","FR","38","Sablons",4.7744,45.3192,138,"2016-09-17T09:00:00Z","infoclimat.fr",2,"NON-COMMERCIAL ONLY: CC BY NC","https://creativecommons.org/licenses/by-nc/2.0/fr/"
"000A9","FR","49","Rablay-sur-Layon",-0.5753,47.2953,51,"2025-11-16T15:20:00Z","infoclimat.fr",1,"CC BY","https://creativecommons.org/licenses/by/2.0/fr/"
"000B0","FR","25","La Chaux ",6.426308,47.021491,900,"2025-11-16T15:20:00Z","infoclimat.fr",1,"CC BY","https://creativecommons.org/licenses/by/2.0/fr/"
"000B3","FR","68","Mulhouse",7.342558,47.745615,255,"2016-01-04T12:30:00Z","infoclimat.fr",2,"NON-COMMERCIAL ONLY: CC BY NC","https://creativecommons.org/licenses/by-nc/2.0/fr/"
"000B4","FR","68","Chalampé",7.54636,47.83039,216,"2013-12-29T16:20:00Z","infoclimat.fr",2,"NON-COMMERCIAL ONLY: CC BY NC","https://creativecommons.org/licenses/by-nc/2.0/fr/"
"000B6","FR","15","Salins",2.3914,45.1911,660,"2025-11-16T15:20:00Z","infoclimat.fr",2,"NON-COMMERCIAL ONLY: CC BY NC","https://creativecommons.org/licenses/by-nc/2.0/fr/"
"000B5","FR","26","Saint-Sorlin-en-Valloire",4.943055,45.2686111,340,"2019-07-19T09:30:00Z","infoclimat.fr",2,"NON-COMMERCIAL ONLY: CC BY NC","https://creativecommons.org/licenses/by-nc/2.0/fr/"
"000C0","FR","57","Buhl-Lorraine",7.0856,48.7239,260,"2025-11-16T15:20:00Z","infoclimat.fr",1,"CC BY","https://creativecommons.org/licenses/by/2.0/fr/"
"000C1","FR","50","Trelly",-1.42,48.96,45,"2025-11-16T15:20:00Z","infoclimat.fr",2,"NON-COMMERCIAL ONLY: CC BY NC","https://creativecommons.org/licenses/by-nc/2.0/fr/"
"000B9","FR","23","Gouzon",2.238222,46.194031,379,"2014-07-29T00:00:00Z","infoclimat.fr",2,"NON-COMMERCIAL ONLY: CC BY NC","https://creativecommons.org/licenses/by-nc/2.0/fr/"
"000B8","FR","18","Augy-sur-Aubois",2.83,46.77,245,"2024-05-31T13:40:00Z","infoclimat.fr",1,"CC BY","https://creativecommons.org/licenses/by/2.0/fr/"
"000C3","NL","NL","Silvolde",6.39022,51.90425,15,"2025-11-12T23:50:00Z","infoclimat.fr",2,"NON-COMMERCIAL ONLY: CC BY NC","https://creativecommons.org/licenses/by-nc/2.0/fr/"
"000C4","FR","13","Marseille-Corniche",5.3598,43.2747,10,"2025-11-16T15:20:00Z","infoclimat.fr",1,"CC BY","https://creativecommons.org/licenses/by/2.0/fr/"
"000C7","FR","25","Chenecey-Buillon",5.96,47.14,280,"2025-11-16T15:20:00Z","infoclimat.fr",2,"NON-COMMERCIAL ONLY: CC BY NC","https://creativecommons.org/licenses/by-nc/2.0/fr/"
"000C5","FR","35","Laillé",-1.74551,47.96935,18,"2025-11-16T15:20:00Z","infoclimat.fr",2,"NON-COMMERCIAL ONLY: CC BY NC","https://creativecommons.org/licenses/by-nc/2.0/fr/"
"000C6","FR","44","Saint-Philbert-de-Grand-Lieu",-1.6403,47.0358,19,"2025-11-16T15:20:00Z","infoclimat.fr",1,"CC BY","https://creativecommons.org/licenses/by/2.0/fr/"
"000C9","FR","69","Sain-Bel",4.59601,45.81679,300,"2025-11-16T15:20:00Z","infoclimat.fr",1,"CC BY","https://creativecommons.org/licenses/by/2.0/fr/"
"000D3","FR","29","Plounéventer",-4.2,48.5,97,"2025-11-16T15:00:00Z","infoclimat.fr",2,"NON-COMMERCIAL ONLY: CC BY NC","https://creativecommons.org/licenses/by-nc/2.0/fr/"
"000D2","FR","29","Kernoues",-4.347839,48.588354,28,"2025-11-16T15:00:00Z","infoclimat.fr",2,"NON-COMMERCIAL ONLY: CC BY NC","https://creativecommons.org/licenses/by-nc/2.0/fr/"
"000D5","FR","86","Naintré",0.48061,46.75789,62,"2025-11-16T15:20:00Z","infoclimat.fr",1,"CC BY","https://creativecommons.org/licenses/by/2.0/fr/"
"000BP","FR","24","Périgueux",0.71667,45.18333,83,"2025-11-16T15:20:00Z","infoclimat.fr",1,"CC BY","https://creativecommons.org/licenses/by/2.0/fr/"
"000F3","FR","34","Agde - Le Grau",3.4651,43.2826,10,"2025-11-16T15:20:00Z","infoclimat.fr",1,"CC BY","https://creativecommons.org/licenses/by/2.0/fr/"
"000D8","FR","29","Brest",-4.48333,48.4,30,"0000-00-00T00:00:00Z","infoclimat.fr",2,"NON-COMMERCIAL ONLY: CC BY NC","https://creativecommons.org/licenses/by-nc/2.0/fr/"
"000F4","CH","CH","La Fouly",7.106,45.9517,1509,"2025-11-16T15:00:00Z","infoclimat.fr",2,"NON-COMMERCIAL ONLY: CC BY NC","https://creativecommons.org/licenses/by-nc/2.0/fr/"
"000F7","CH","CHE","Versoix",6.165768206,46.2955479074,385,"2025-11-16T15:20:00Z","infoclimat.fr",2,"NON-COMMERCIAL ONLY: CC BY NC","https://creativecommons.org/licenses/by-nc/2.0/fr/"
"000F8","FR","33","Belin-Béliet",-0.76389,44.50602,55,"2025-08-29T19:00:00Z","infoclimat.fr",2,"NON-COMMERCIAL ONLY: CC BY NC","https://creativecommons.org/licenses/by-nc/2.0/fr/"
"000G1","FR","57","Gros-Réderching",7.2132862,49.0703376,299,"2025-11-16T15:20:00Z","infoclimat.fr",1,"CC BY","https://creativecommons.org/licenses/by/2.0/fr/"
"000G2","FR","67","Gries",7.8135,48.7535,143,"0000-00-00T00:00:00Z","infoclimat.fr",1,"CC BY","https://creativecommons.org/licenses/by/2.0/fr/"
"000G3","FR","76","Le Mesnil-Esnard",1.15,49.4167,152,"2025-11-16T15:20:00Z","infoclimat.fr",1,"CC BY","https://creativecommons.org/licenses/by/2.0/fr/"
"000G4","FR","67","Niederbronn-les-Bains",7.6353,48.955,217,"2023-08-28T13:00:00Z","infoclimat.fr",1,"CC BY","https://creativecommons.org/licenses/by/2.0/fr/"
"000G6","FR","17","Aigrefeuille-d'Aunis",-0.93333,46.1167,20,"2025-11-16T15:20:00Z","infoclimat.fr",2,"NON-COMMERCIAL ONLY: CC BY NC","https://creativecommons.org/licenses/by-nc/2.0/fr/"
"000G7","FR","43","Saint-Haon",3.75,44.85,1005,"2025-11-16T15:00:00Z","infoclimat.fr",2,"NON-COMMERCIAL ONLY: CC BY NC","https://creativecommons.org/licenses/by-nc/2.0/fr/"
"000G9","NL","NL","Ruurlo",6.515,52.065,15,"2025-11-16T15:20:00Z","infoclimat.fr",2,"NON-COMMERCIAL ONLY: CC BY NC","https://creativecommons.org/licenses/by-nc/2.0/fr/"
"000H0","NL","NL","Arnhem - Presikhaaf",5.945,51.987,11,"2025-11-12T23:50:00Z","infoclimat.fr",2,"NON-COMMERCIAL ONLY: CC BY NC","https://creativecommons.org/licenses/by-nc/2.0/fr/"
"000H2","FR","88","Rupt-sur-Moselle",6.6584,47.92532,432,"2025-11-16T15:15:00Z","infoclimat.fr",2,"NON-COMMERCIAL ONLY: CC BY NC","https://creativecommons.org/licenses/by-nc/2.0/fr/"
"000H3","FR","43","Les Estables",4.16667,44.9,1350,"2025-06-08T10:10:00Z","infoclimat.fr",1,"CC BY","https://creativecommons.org/licenses/by/2.0/fr/"
"000H4","FR","03","Meillers",3.08333,46.5,320,"2025-02-15T09:20:00Z","infoclimat.fr",1,"CC BY","https://creativecommons.org/licenses/by/2.0/fr/"
"000H6","FR","58","Les Buteaux",3.972,46.985,670,"2021-08-29T16:45:00Z","infoclimat.fr",2,"NON-COMMERCIAL ONLY: CC BY NC","https://creativecommons.org/licenses/by-nc/2.0/fr/"
"000H8","FR","34","Montpellier",3.8833333,43.6,40,"0000-00-00T00:00:00Z","infoclimat.fr",2,"NON-COMMERCIAL ONLY: CC BY NC","https://creativecommons.org/licenses/by-nc/2.0/fr/"
"000H9","FR","78","Juziers",1.847591,48.9938,82,"0000-00-00T00:00:00Z","infoclimat.fr",2,"NON-COMMERCIAL ONLY: CC BY NC","https://creativecommons.org/licenses/by-nc/2.0/fr/"
"000I1","FR","34","Laroque",3.7333333,43.9166667,150,"2025-11-16T15:20:00Z","infoclimat.fr",2,"NON-COMMERCIAL ONLY: CC BY NC","https://creativecommons.org/licenses/by-nc/2.0/fr/"
"000I2","FR","34","Prades-sur-Vernazobre",2.9833333,43.45,110,"2020-08-28T14:10:00Z","infoclimat.fr",1,"CC BY","https://creativecommons.org/licenses/by/2.0/fr/"
"000E0","FR","53","Origné",-0.7166667,47.95,100,"2016-01-19T10:10:00Z","infoclimat.fr",2,"NON-COMMERCIAL ONLY: CC BY NC","https://creativecommons.org/licenses/by-nc/2.0/fr/"
"000E2","FR","03","Saint-Martinien",2.47291666,46.3383611,390,"2025-11-16T15:20:00Z","infoclimat.fr",2,"NON-COMMERCIAL ONLY: CC BY NC","https://creativecommons.org/licenses/by-nc/2.0/fr/"
"000K3","FR","82","Valence",0.89101,44.10823,67,"2025-10-21T07:00:00Z","infoclimat.fr",1,"CC BY","https://creativecommons.org/licenses/by/2.0/fr/"
"000E7","FR","34","Saint-Jean-de-Védas - La Fermaude",3.8333333,43.5833333,50,"2025-11-16T15:20:00Z","infoclimat.fr",1,"CC BY","https://creativecommons.org/licenses/by/2.0/fr/"
"000E8","FR","88","Hadigny-les-Verrières",6.4666667,48.3166667,325,"0000-00-00T00:00:00Z","infoclimat.fr",1,"CC BY","https://creativecommons.org/licenses/by/2.0/fr/"
"000I4","FR","56","Guidel",-3.4866667,47.7888889,41,"2019-11-28T06:30:00Z","infoclimat.fr",1,"CC BY","https://creativecommons.org/licenses/by/2.0/fr/"
"000I5","FR","08","Bulson",4.9166667,49.6333333,285,"2025-11-16T15:20:00Z","infoclimat.fr",1,"CC BY","https://creativecommons.org/licenses/by/2.0/fr/"
"000I6","BE","BE","Lobbes",4.25,50.35,155,"2025-11-16T15:20:00Z","infoclimat.fr",1,"CC BY","https://creativecommons.org/licenses/by/2.0/fr/"
"000I9","FR","85","Foussais-Payré",-0.68333,46.53333,75,"2025-11-16T15:20:00Z","infoclimat.fr",2,"NON-COMMERCIAL ONLY: CC BY NC","https://creativecommons.org/licenses/by-nc/2.0/fr/"
"000J2","FR","03","Villebret",2.63827,46.26685,397,"2025-11-16T15:20:00Z","infoclimat.fr",2,"NON-COMMERCIAL ONLY: CC BY NC","https://creativecommons.org/licenses/by-nc/2.0/fr/"
"000I7","FR","05","Eygliers",6.61900520324707,44.6773811394476,934,"2025-11-16T15:20:00Z","infoclimat.fr",1,"CC BY","https://creativecommons.org/licenses/by/2.0/fr/"
"000J0","FR","83","Le Luc",6.31474,43.39318,175,"2025-11-16T15:15:00Z","infoclimat.fr",1,"CC BY","https://creativecommons.org/licenses/by/2.0/fr/"
"000J4","FR","84","L'Isle-sur-la-Sorgue - Velorgues",5.052222,43.902778,65,"2025-11-16T15:20:00Z","infoclimat.fr",2,"NON-COMMERCIAL ONLY: CC BY NC","https://creativecommons.org/licenses/by-nc/2.0/fr/"
"000J6","FR","83","Le Castellet",5.77642,43.20285,123,"2022-08-18T10:30:00Z","infoclimat.fr",2,"NON-COMMERCIAL ONLY: CC BY NC","https://creativecommons.org/licenses/by-nc/2.0/fr/"
"000J8","FR","34","Béziers",3.21899,43.34762,50,"2025-11-16T15:00:00Z","infoclimat.fr",2,"NON-COMMERCIAL ONLY: CC BY NC","https://creativecommons.org/licenses/by-nc/2.0/fr/"
"000J9","FR","02","Nogentel",3.4004,49.0161,70,"2025-11-16T15:20:00Z","infoclimat.fr",1,"CC BY","https://creativecommons.org/licenses/by/2.0/fr/"
"000K0","FR","01","Viriat",5.21567,46.25484,231,"2025-11-16T15:20:00Z","infoclimat.fr",2,"NON-COMMERCIAL ONLY: CC BY NC","https://creativecommons.org/licenses/by-nc/2.0/fr/"
"000K1","FR","38","L'Isle-d'Abeau",5.23546,45.61813,250,"2025-11-16T15:20:00Z","infoclimat.fr",1,"CC BY","https://creativecommons.org/licenses/by/2.0/fr/"
"000K2","FR","84","L'Isle-sur-la-Sorgue - Lycée agricole",5.0511,43.9219,55,"2019-04-16T06:30:00Z","infoclimat.fr",1,"CC BY","https://creativecommons.org/licenses/by/2.0/fr/"
"000K4","FR","57","Phalsbourg",7.26667,48.76667,322,"2016-08-17T20:30:00Z","infoclimat.fr",2,"NON-COMMERCIAL ONLY: CC BY NC","https://creativecommons.org/licenses/by-nc/2.0/fr/"
"000K5","FR","73","Saint-Nicolas-la-Chapelle",6.49803,45.80791,930,"2025-11-16T15:20:00Z","infoclimat.fr",2,"NON-COMMERCIAL ONLY: CC BY NC","https://creativecommons.org/licenses/by-nc/2.0/fr/"
"000K6","FR","59","Hestrud",4.15197,50.19932,232,"2025-11-16T15:20:00Z","infoclimat.fr",2,"NON-COMMERCIAL ONLY: CC BY NC","https://creativecommons.org/licenses/by-nc/2.0/fr/"
"000K7","FR","05","Saint-Léger-les-Mélèzes",6.2,44.64409,1245,"2024-12-08T17:00:00Z","infoclimat.fr",2,"NON-COMMERCIAL ONLY: CC BY NC","https://creativecommons.org/licenses/by-nc/2.0/fr/"
"000L1","FR","15","Cheylade - Vallée de la Rhue",2.7,45.175,1000,"2025-11-16T15:20:00Z","infoclimat.fr",1,"CC BY","https://creativecommons.org/licenses/by/2.0/fr/"
"000L2","FR","32","Saramon",0.76349,43.52318,190,"2025-11-16T15:00:00Z","infoclimat.fr",2,"NON-COMMERCIAL ONLY: CC BY NC","https://creativecommons.org/licenses/by-nc/2.0/fr/"
"000P7","FR","95","Argenteuil",2.25,48.95,104,"2024-11-11T10:40:00Z","infoclimat.fr",1,"CC BY","https://creativecommons.org/licenses/by/2.0/fr/"
"000Q3","FR","66","Perpignan - Moulin à Vent",2.89541,42.69764,43,"2025-05-07T12:30:00Z","infoclimat.fr",1,"CC BY","https://creativecommons.org/licenses/by/2.0/fr/"
"000L3","FR","84","Saint-Saturnin-lès-Avignon",4.92548,43.95501,60,"2017-06-13T19:50:00Z","infoclimat.fr",1,"CC BY","https://creativecommons.org/licenses/by/2.0/fr/"
"000L4","FR","13","Roquevaire - Vallon du Gaudissard",5.5725,43.3443,227,"2024-09-22T15:00:00Z","infoclimat.fr",1,"CC BY","https://creativecommons.org/licenses/by/2.0/fr/"
"000L5","FR","34","Valflaunès",3.87234,43.80011,155,"2016-09-14T06:30:00Z","infoclimat.fr",1,"CC BY","https://creativecommons.org/licenses/by/2.0/fr/"
"000L7","FR","34","Aniane",3.58652114868164,43.6845083544836,64,"2025-11-16T15:20:00Z","infoclimat.fr",2,"NON-COMMERCIAL ONLY: CC BY NC","https://creativecommons.org/licenses/by-nc/2.0/fr/"
"000L9","FR","16","Genac",0.029167,45.794722,75,"2025-11-16T15:15:00Z","infoclimat.fr",2,"NON-COMMERCIAL ONLY: CC BY NC","https://creativecommons.org/licenses/by-nc/2.0/fr/"
"000M2","FR","26","Bourg-lès-Valence",4.91023,44.95601,150,"2021-10-23T12:30:00Z","infoclimat.fr",1,"CC BY","https://creativecommons.org/licenses/by/2.0/fr/"
"000M3","CA","CA","Whitehorse",-135.2,60.826,660,"2017-08-07T03:30:00Z","infoclimat.fr",1,"CC BY","https://creativecommons.org/licenses/by/2.0/fr/"
"000M4","FR","37","Ciran",0.889194,47.061466,84,"2025-11-16T15:20:00Z","infoclimat.fr",1,"CC BY","https://creativecommons.org/licenses/by/2.0/fr/"
"000M6","FR","17","Arvert (1)",-1.126,45.74486,22,"2025-11-16T15:20:00Z","infoclimat.fr",2,"NON-COMMERCIAL ONLY: CC BY NC","https://creativecommons.org/licenses/by-nc/2.0/fr/"
"000M7","FR","56","Ploeren",-2.86398,47.65713,45,"2023-03-23T06:40:00Z","infoclimat.fr",1,"CC BY","https://creativecommons.org/licenses/by/2.0/fr/"
"000M8","FR","83","Saint-Maximin-la-Sainte-Baume - Saint Mitre",5.844013094902039,43.47828749302741,307,"2025-11-16T15:15:00Z","infoclimat.fr",2,"NON-COMMERCIAL ONLY: CC BY NC","https://creativecommons.org/licenses/by-nc/2.0/fr/"
"STATIC0383","FR","80","Amiens - Saint-Acheul",2.32281,49.8837,50,"2025-11-16T15:15:00Z","infoclimat.fr",1,"CC BY","https://creativecommons.org/licenses/by/2.0/fr/"
"000M9","FR","83","Sanary-sur-Mer",5.811918,43.141322,67,"2025-11-16T15:15:00Z","infoclimat.fr",1,"CC BY","https://creativecommons.org/licenses/by/2.0/fr/"
"000Q7","FR","17","Aigrefeuille-d'Aunis - Château-d'eau",-0.93689,46.11539,62,"2020-06-12T22:20:00Z","infoclimat.fr",2,"NON-COMMERCIAL ONLY: CC BY NC","https://creativecommons.org/licenses/by-nc/2.0/fr/"
"000N3","FR","26","Crest",5.02722,44.72836,310,"2025-11-16T15:20:00Z","infoclimat.fr",1,"CC BY","https://creativecommons.org/licenses/by/2.0/fr/"
"000N4","FR","85","Aizenay",-1.60834,46.74004,69,"2024-09-23T05:30:00Z","infoclimat.fr",2,"NON-COMMERCIAL ONLY: CC BY NC","https://creativecommons.org/licenses/by-nc/2.0/fr/"
"000N6","FR","83","Nans-les-Pins",5.78436613082886,43.3720281466243,400,"2025-11-16T15:20:00Z","infoclimat.fr",2,"NON-COMMERCIAL ONLY: CC BY NC","https://creativecommons.org/licenses/by-nc/2.0/fr/"
"000N5","FR","2B","Oletta",9.342,42.632,110,"2025-11-16T15:20:00Z","infoclimat.fr",2,"NON-COMMERCIAL ONLY: CC BY NC","https://creativecommons.org/licenses/by-nc/2.0/fr/"
"000N9","FR","85","Les Herbiers",-1.009414,46.887261,180,"2025-06-10T04:30:00Z","infoclimat.fr",2,"NON-COMMERCIAL ONLY: CC BY NC","https://creativecommons.org/licenses/by-nc/2.0/fr/"
"000O2","FR","89","Cerisiers",3.4851,48.13339,150,"2025-11-16T15:20:00Z","infoclimat.fr",2,"NON-COMMERCIAL ONLY: CC BY NC","https://creativecommons.org/licenses/by-nc/2.0/fr/"
"000O3","FR","44","Saint-Brevin-les-Pins",-2.16667,47.25,5,"2025-11-16T15:20:00Z","infoclimat.fr",2,"NON-COMMERCIAL ONLY: CC BY NC","https://creativecommons.org/licenses/by-nc/2.0/fr/"
"000O4","FR","19","Saint-Angel",2.23333,45.5,662,"2025-11-16T15:20:00Z","infoclimat.fr",2,"NON-COMMERCIAL ONLY: CC BY NC","https://creativecommons.org/licenses/by-nc/2.0/fr/"
"000O5","FR","42","Bard",4.01469,45.58662,810,"2025-11-16T15:20:00Z","infoclimat.fr",1,"CC BY","https://creativecommons.org/licenses/by/2.0/fr/"
"000O7","FR","42","Saint-Bonnet-le-Château",4.067,45.424,870,"2020-09-30T16:20:00Z","infoclimat.fr",1,"CC BY","https://creativecommons.org/licenses/by/2.0/fr/"
"000O8","FR","34","Saint-Clément-de-Rivière",3.83333,43.68333,115,"2025-11-16T15:20:00Z","infoclimat.fr",1,"CC BY","https://creativecommons.org/licenses/by/2.0/fr/"
"000O9","FR","26","Recoubeau-Jansac",5.41489,44.65498,510,"2025-11-16T15:15:00Z","infoclimat.fr",2,"NON-COMMERCIAL ONLY: CC BY NC","https://creativecommons.org/licenses/by-nc/2.0/fr/"
"000P1","FR","23","Maisonnisses",1.89812,46.06194,576,"2024-11-21T09:20:00Z","infoclimat.fr",1,"CC BY","https://creativecommons.org/licenses/by/2.0/fr/"
"000P2","FR","25","Besançon",6.01815,47.24878,355,"2025-11-16T15:20:00Z","infoclimat.fr",1,"CC BY","https://creativecommons.org/licenses/by/2.0/fr/"
"000P4","FR","03","Ferrières sur Sichon - Cheval Rigon",3.60768,46.03951,586,"2025-09-20T21:30:00Z","infoclimat.fr",2,"NON-COMMERCIAL ONLY: CC BY NC","https://creativecommons.org/licenses/by-nc/2.0/fr/"
"000P6","FR","53","Saint-Germain-le-Guillaume",-0.82601,48.20608,110,"2025-11-16T15:15:00Z","infoclimat.fr",2,"NON-COMMERCIAL ONLY: CC BY NC","https://creativecommons.org/licenses/by-nc/2.0/fr/"
"000P8","FR","78","Issou",1.79292,48.98994,85,"2022-06-05T09:10:00Z","infoclimat.fr",2,"NON-COMMERCIAL ONLY: CC BY NC","https://creativecommons.org/licenses/by-nc/2.0/fr/"
"000P9","FR","85","Saint-Michel-Mont-Mercure",-0.88298,46.82941,235,"2018-07-04T18:20:00Z","infoclimat.fr",1,"CC BY","https://creativecommons.org/licenses/by/2.0/fr/"
"000Q2","FR","56","Sénébret",-3.3593,47.8413,69,"2025-11-16T15:20:00Z","infoclimat.fr",1,"CC BY","https://creativecommons.org/licenses/by/2.0/fr/"
"000Q4","FR","48","Villefort - Mas de la Barque",3.8749374389648,44.385771176034,1420,"2025-11-16T15:20:00Z","infoclimat.fr",1,"CC BY","https://creativecommons.org/licenses/by/2.0/fr/"
"000Q6","FR","85","Mouilleron-le-Captif",-1.45462,46.71898,77,"2025-11-16T15:20:00Z","infoclimat.fr",2,"NON-COMMERCIAL ONLY: CC BY NC","https://creativecommons.org/licenses/by-nc/2.0/fr/"
"000Q8","FR","81","Castres",2.2331524,43.5996765,174,"2017-02-18T11:30:00Z","infoclimat.fr",1,"CC BY","https://creativecommons.org/licenses/by/2.0/fr/"
"000Q9","FR","83","Pourrières",5.73452,43.50611,283,"2021-08-15T18:00:00Z","infoclimat.fr",2,"NON-COMMERCIAL ONLY: CC BY NC","https://creativecommons.org/licenses/by-nc/2.0/fr/"
"000R1","FR","58","Brassy",3.902878,47.270676,412,"2025-11-16T15:20:00Z","infoclimat.fr",1,"CC BY","https://creativecommons.org/licenses/by/2.0/fr/"
"000R2","FR","04","Digne-les-Bains",6.23191,44.10429,610,"2025-10-01T13:00:00Z","infoclimat.fr",2,"NON-COMMERCIAL ONLY: CC BY NC","https://creativecommons.org/licenses/by-nc/2.0/fr/"
"000R3","FR","88","Gérardmer",6.87787,48.07346,700,"2018-02-28T23:20:00Z","infoclimat.fr",1,"CC BY","https://creativecommons.org/licenses/by/2.0/fr/"
"000R4","FR","81","Lagarrigue",2.27784,43.57765,208,"2025-11-16T15:20:00Z","infoclimat.fr",2,"NON-COMMERCIAL ONLY: CC BY NC","https://creativecommons.org/licenses/by-nc/2.0/fr/"
"000R5","FR","59","Bergues",2.4405555555555556,50.9680683,17,"2025-11-16T15:20:00Z","infoclimat.fr",1,"CC BY","https://creativecommons.org/licenses/by/2.0/fr/"
"000R6","FR","73","Saint-Jean-de-Maurienne",6.35,45.283333,540,"2017-01-19T18:30:00Z","infoclimat.fr",1,"CC BY","https://creativecommons.org/licenses/by/2.0/fr/"
"000S0","FR","65","Luz-Saint-Sauveur",-0.00322,42.87191,670,"2025-11-16T15:20:00Z","infoclimat.fr",2,"NON-COMMERCIAL ONLY: CC BY NC","https://creativecommons.org/licenses/by-nc/2.0/fr/"
"000S1","FR","68","Goldbach-Altenbach",7.093058,47.881718,705,"2025-11-16T15:20:00Z","infoclimat.fr",2,"NON-COMMERCIAL ONLY: CC BY NC","https://creativecommons.org/licenses/by-nc/2.0/fr/"
"000S4","FR","08","Sorcy-Bauthémont",4.5367,49.5386,112,"2024-01-15T14:00:00Z","infoclimat.fr",1,"CC BY","https://creativecommons.org/licenses/by/2.0/fr/"
"000S2","FR","62","Saint-Tricat",1.83126,50.89326,11,"2025-11-16T15:20:00Z","infoclimat.fr",1,"CC BY","https://creativecommons.org/licenses/by/2.0/fr/"
"000S3","FR","86","Les Ormes",0.60484,46.97478,40,"2025-11-16T15:20:00Z","infoclimat.fr",2,"NON-COMMERCIAL ONLY: CC BY NC","https://creativecommons.org/licenses/by-nc/2.0/fr/"
"000S6","FR","77","Treuzy-Levelay",2.80204,48.27787,84,"2015-01-02T21:00:00Z","infoclimat.fr",1,"CC BY","https://creativecommons.org/licenses/by/2.0/fr/"
"000S7","FR","16","Ladiville",-0.06969,45.51209,130,"2025-11-16T15:20:00Z","infoclimat.fr",2,"NON-COMMERCIAL ONLY: CC BY NC","https://creativecommons.org/licenses/by-nc/2.0/fr/"
"STATIC0313","FR","24","Queyssac",0.547139,44.9142,113,"2025-11-16T15:20:00Z","infoclimat.fr",1,"CC BY","https://creativecommons.org/licenses/by/2.0/fr/"
"000S8","FR","68","Willer-sur-Thur - Grand Ballon",7.102187,47.904363,1355,"2025-11-16T15:20:00Z","infoclimat.fr",2,"NON-COMMERCIAL ONLY: CC BY NC","https://creativecommons.org/licenses/by-nc/2.0/fr/"
"000S9","FR","25","Les Fourgs",6.39953,46.83455,1140,"2025-11-16T15:20:00Z","infoclimat.fr",2,"NON-COMMERCIAL ONLY: CC BY NC","https://creativecommons.org/licenses/by-nc/2.0/fr/"
"000T0","FR","38","Lans-en-Vercors - Les Bruyères",5.57,45.1,990,"2025-11-16T15:20:00Z","infoclimat.fr",1,"CC BY","https://creativecommons.org/licenses/by/2.0/fr/"
"000T1","FR","79","Vouillé",-0.36844,46.3155,71,"2025-11-16T15:20:00Z","infoclimat.fr",1,"CC BY","https://creativecommons.org/licenses/by/2.0/fr/"
"000T3","FR","68","Lautenbachzell",7.119471,47.925547,690,"2025-11-16T15:20:00Z","infoclimat.fr",1,"CC BY","https://creativecommons.org/licenses/by/2.0/fr/"
"000T5","FR","57","Serémange-Erzange",6.09025,49.31887,210,"2025-11-16T15:15:00Z","infoclimat.fr",2,"NON-COMMERCIAL ONLY: CC BY NC","https://creativecommons.org/licenses/by-nc/2.0/fr/"
"000T6","FR","58","La Marche",3.03403,47.1397,170,"2022-08-14T19:00:00Z","infoclimat.fr",1,"CC BY","https://creativecommons.org/licenses/by/2.0/fr/"
"000T9","FR","46","Moncoutie",1.47274,44.53704,333,"2025-11-16T15:20:00Z","infoclimat.fr",2,"NON-COMMERCIAL ONLY: CC BY NC","https://creativecommons.org/licenses/by-nc/2.0/fr/"
"000T8","FR","88","Xertigny",6.406667,48.046111,461,"2025-11-16T15:20:00Z","infoclimat.fr",2,"NON-COMMERCIAL ONLY: CC BY NC","https://creativecommons.org/licenses/by-nc/2.0/fr/"
"000U0","FR","95","Asnières-sur-Oise",2.35551,49.13369,51,"2025-11-16T15:20:00Z","infoclimat.fr",1,"CC BY","https://creativecommons.org/licenses/by/2.0/fr/"
"000U1","FR","33","Frontenac",-0.16254,44.7381,84,"2025-11-16T15:15:00Z","infoclimat.fr",2,"NON-COMMERCIAL ONLY: CC BY NC","https://creativecommons.org/licenses/by-nc/2.0/fr/"
"000QU","FR","38","Brion",5.33742,45.29351,673,"2025-11-16T15:20:00Z","infoclimat.fr",1,"CC BY","https://creativecommons.org/licenses/by/2.0/fr/"
"000U2","FR","05","Puy-Saint-Pierre",6.6268,44.89348,1560,"2025-11-16T15:20:00Z","infoclimat.fr",1,"CC BY","https://creativecommons.org/licenses/by/2.0/fr/"
"000U3","FR","43","Saint-Didier-en-Velay",4.27561,45.30234,834,"2025-11-16T15:00:00Z","infoclimat.fr",2,"NON-COMMERCIAL ONLY: CC BY NC","https://creativecommons.org/licenses/by-nc/2.0/fr/"
"000U4","FR","69","Fleurie",4.69733,46.19208,290,"2024-06-28T15:25:00Z","infoclimat.fr",1,"CC BY","https://creativecommons.org/licenses/by/2.0/fr/"
"000U6","FR","05","Orcières - Chauffarel",6.293677,44.68143,1257,"2023-10-03T08:10:00Z","infoclimat.fr",2,"NON-COMMERCIAL ONLY: CC BY NC","https://creativecommons.org/licenses/by-nc/2.0/fr/"
"000U7","FR","26","Peyrus",5.10945,44.9136,430,"2025-11-16T15:20:00Z","infoclimat.fr",2,"NON-COMMERCIAL ONLY: CC BY NC","https://creativecommons.org/licenses/by-nc/2.0/fr/"
"000U8","FR","07","Viviers",4.68721,44.48515,90,"2025-11-16T15:20:00Z","infoclimat.fr",2,"NON-COMMERCIAL ONLY: CC BY NC","https://creativecommons.org/licenses/by-nc/2.0/fr/"
"000U9","FR","83","Bras",5.95672,43.47183,327,"2025-11-16T15:20:00Z","infoclimat.fr",2,"NON-COMMERCIAL ONLY: CC BY NC","https://creativecommons.org/licenses/by-nc/2.0/fr/"
"000V0","FR","01","Innimond",5.5725,45.78262,890,"2025-11-16T15:20:00Z","infoclimat.fr",2,"NON-COMMERCIAL ONLY: CC BY NC","https://creativecommons.org/licenses/by-nc/2.0/fr/"
"000V2","FR","88","Xonrupt-Longemer - Refuge du Sotré",7.002565,48.042556,1200,"2025-11-16T15:20:00Z","infoclimat.fr",2,"NON-COMMERCIAL ONLY: CC BY NC","https://creativecommons.org/licenses/by-nc/2.0/fr/"
"000V3","FR","67","Stutzheim-Offenheim",7.62357,48.62877,163,"2025-11-16T15:20:00Z","infoclimat.fr",1,"CC BY","https://creativecommons.org/licenses/by/2.0/fr/"
"000V4","FR","85","La Bruffière",-1.1973,47.01492,75,"2025-11-16T15:20:00Z","infoclimat.fr",2,"NON-COMMERCIAL ONLY: CC BY NC","https://creativecommons.org/licenses/by-nc/2.0/fr/"
"STATIC0132","FR","32","Bouzon-Gellenave",0.0235525,43.6984,139,"2025-11-16T15:20:00Z","infoclimat.fr",1,"CC BY","https://creativecommons.org/licenses/by/2.0/fr/"
"000V6","FR","88","Basse-sur-le-Rupt (Croix des Moinats)",6.75652,47.98582,900,"2025-11-16T15:20:00Z","infoclimat.fr",1,"CC BY","https://creativecommons.org/licenses/by/2.0/fr/"
"000V8","FR","975","Miquelon",-56.3811,47.100211,6,"2025-11-16T15:20:00Z","infoclimat.fr",2,"NON-COMMERCIAL ONLY: CC BY NC","https://creativecommons.org/licenses/by-nc/2.0/fr/"
"000V7","FR","84","Pertuis",5.50721,43.69553,206,"2020-02-28T16:10:00Z","infoclimat.fr",1,"CC BY","https://creativecommons.org/licenses/by/2.0/fr/"
"000W1","FR","73","Val-d'Isère",6.9781,45.44972,1850,"2025-11-16T15:15:00Z","infoclimat.fr",2,"NON-COMMERCIAL ONLY: CC BY NC","https://creativecommons.org/licenses/by-nc/2.0/fr/"
"000W2","FR","63","Artonne",3.14398,46.00246,405,"2025-11-16T15:20:00Z","infoclimat.fr",2,"NON-COMMERCIAL ONLY: CC BY NC","https://creativecommons.org/licenses/by-nc/2.0/fr/"
"000DA","FR","77","Combs-la-Ville",2.577601,48.663886,89,"2021-06-26T16:50:00Z","infoclimat.fr",2,"NON-COMMERCIAL ONLY: CC BY NC","https://creativecommons.org/licenses/by-nc/2.0/fr/"
"000W5","FR","15","Vieillevie",2.41965,44.64484,210,"2025-11-16T15:20:00Z","infoclimat.fr",2,"NON-COMMERCIAL ONLY: CC BY NC","https://creativecommons.org/licenses/by-nc/2.0/fr/"
"000W6","FR","11","Quillan",2.18176,42.87579,276,"2025-11-16T15:20:00Z","infoclimat.fr",1,"CC BY","https://creativecommons.org/licenses/by/2.0/fr/"
"000Y4","FR","63","La Bourboule",2.740771,45.588773,855,"2025-11-16T15:20:00Z","infoclimat.fr",1,"CC BY","https://creativecommons.org/licenses/by/2.0/fr/"
"000W7","FR","11","Roquefeuil",2.00716,42.854787,885,"2025-11-16T15:20:00Z","infoclimat.fr",1,"CC BY","https://creativecommons.org/licenses/by/2.0/fr/"
"000W8","FR","78","Orvilliers",1.64759,48.85996,131,"2025-11-16T15:15:00Z","infoclimat.fr",2,"NON-COMMERCIAL ONLY: CC BY NC","https://creativecommons.org/licenses/by-nc/2.0/fr/"
"000W9","FR","05","Gap",6.04368,44.5373,788,"2025-11-16T15:20:00Z","infoclimat.fr",1,"CC BY","https://creativecommons.org/licenses/by/2.0/fr/"
"000X0","FR","22","Trégueux",-2.73333,48.48333,101,"2025-11-16T15:20:00Z","infoclimat.fr",1,"CC BY","https://creativecommons.org/licenses/by/2.0/fr/"
"000X1","FR","07","Bourg-Saint-Andéol",4.64273,44.37566,140,"2023-03-03T21:20:00Z","infoclimat.fr",2,"NON-COMMERCIAL ONLY: CC BY NC","https://creativecommons.org/licenses/by-nc/2.0/fr/"
"000X2","FR","26","Colonzelle",4.90082,44.39307,152,"2015-12-09T18:20:00Z","infoclimat.fr",2,"NON-COMMERCIAL ONLY: CC BY NC","https://creativecommons.org/licenses/by-nc/2.0/fr/"
"000X3","FR","17","Montroy",-1.01094,46.15543,38,"2025-11-16T15:20:00Z","infoclimat.fr",2,"NON-COMMERCIAL ONLY: CC BY NC","https://creativecommons.org/licenses/by-nc/2.0/fr/"
"000X4","FR","46","Lhospitalet",1.41667,44.35,280,"2025-11-16T15:20:00Z","infoclimat.fr",2,"NON-COMMERCIAL ONLY: CC BY NC","https://creativecommons.org/licenses/by-nc/2.0/fr/"
"000X5","FR","48","Saint-Alban-sur-Limagnole",3.3868896822479,44.774565830145,930,"2025-11-16T15:20:00Z","infoclimat.fr",1,"CC BY","https://creativecommons.org/licenses/by/2.0/fr/"
"000X6","FR","35","Saint-Gonlay",-2.0661,48.11343,78,"2017-08-30T12:20:00Z","infoclimat.fr",1,"CC BY","https://creativecommons.org/licenses/by/2.0/fr/"
"000X8","FR","85","Grosbreuil",-1.61655,46.53946,41,"2025-11-16T15:20:00Z","infoclimat.fr",1,"CC BY","https://creativecommons.org/licenses/by/2.0/fr/"
"000X9","FR","83","Six-Fours-les-Plages (Pont du Brusc)",5.833386,43.094817,35,"2023-04-04T06:30:00Z","infoclimat.fr",1,"CC BY","https://creativecommons.org/licenses/by/2.0/fr/"
"000Y1","FR","83","La Bastide - Montagne de Lachens",6.653205,43.745068,1680,"2016-08-23T18:30:00Z","infoclimat.fr",2,"NON-COMMERCIAL ONLY: CC BY NC","https://creativecommons.org/licenses/by-nc/2.0/fr/"
"000AU","FR","02","Chézy-sur-Marne",3.36786,48.98881,70,"2025-11-16T15:20:00Z","infoclimat.fr",2,"NON-COMMERCIAL ONLY: CC BY NC","https://creativecommons.org/licenses/by-nc/2.0/fr/"
"000VB","FR","72","Bessé-sur-Braye",0.73862,47.8223,77,"2025-11-16T15:20:00Z","infoclimat.fr",2,"NON-COMMERCIAL ONLY: CC BY NC","https://creativecommons.org/licenses/by-nc/2.0/fr/"
"000Y3","FR","63","Mont-Dore - Puy de Sancy",2.819371,45.531689,1660,"2025-11-16T15:20:00Z","infoclimat.fr",2,"NON-COMMERCIAL ONLY: CC BY NC","https://creativecommons.org/licenses/by-nc/2.0/fr/"
"000Y5","FR","01","Briord (Vérizieu)",5.487,45.777,281,"2025-11-16T15:20:00Z","infoclimat.fr",2,"NON-COMMERCIAL ONLY: CC BY NC","https://creativecommons.org/licenses/by-nc/2.0/fr/"
"000Y9","FR","83","Six-Fours-les-Plages (Bucarin)",5.822602,43.10414,15,"2025-11-16T14:30:00Z","infoclimat.fr",1,"CC BY","https://creativecommons.org/licenses/by/2.0/fr/"
"000Z0","FR","38","Trept",5.31617,45.68561,265,"2025-11-16T15:20:00Z","infoclimat.fr",1,"CC BY","https://creativecommons.org/licenses/by/2.0/fr/"
"000Z1","FR","22","Saint-Igneuc",-2.34498,48.41612,85,"2025-11-16T15:20:00Z","infoclimat.fr",2,"NON-COMMERCIAL ONLY: CC BY NC","https://creativecommons.org/licenses/by-nc/2.0/fr/"
"000Z4","FR","67","Ringendorf",7.55516,48.80743,215,"2025-11-16T15:20:00Z","infoclimat.fr",2,"NON-COMMERCIAL ONLY: CC BY NC","https://creativecommons.org/licenses/by-nc/2.0/fr/"
"000Z6","FR","16","Brigueuil",0.843665,45.964076,250,"2025-11-16T15:20:00Z","infoclimat.fr",2,"NON-COMMERCIAL ONLY: CC BY NC","https://creativecommons.org/licenses/by-nc/2.0/fr/"
"000Z7","FR","86","La Chapelle-Montreuil",0.11667,46.53333,150,"2025-11-16T15:20:00Z","infoclimat.fr",2,"NON-COMMERCIAL ONLY: CC BY NC","https://creativecommons.org/licenses/by-nc/2.0/fr/"
"000Z8","FR","13","Aix-en-Provence",5.459174,43.510673,153,"2025-11-16T15:20:00Z","infoclimat.fr",1,"CC BY","https://creativecommons.org/licenses/by/2.0/fr/"
"000Z9","FR","38","Voiron",5.59209,45.36395,390,"2015-06-19T18:30:00Z","infoclimat.fr",1,"CC BY","https://creativecommons.org/licenses/by/2.0/fr/"
"000AA","FR","24","Castels",1.05692,44.87184,185,"2025-11-16T15:00:00Z","infoclimat.fr",2,"NON-COMMERCIAL ONLY: CC BY NC","https://creativecommons.org/licenses/by-nc/2.0/fr/"
"000AB","FR","68","Landser",7.394,47.68387,267,"2025-11-16T15:20:00Z","infoclimat.fr",1,"CC BY","https://creativecommons.org/licenses/by/2.0/fr/"
"000AC","FR","72","Connerré",0.471311,48.05437,64,"2025-11-16T15:20:00Z","infoclimat.fr",2,"NON-COMMERCIAL ONLY: CC BY NC","https://creativecommons.org/licenses/by-nc/2.0/fr/"
"000AD","FR","62","Saint-Michel-sur-Ternoise",2.3556,50.377,87,"2025-11-16T15:20:00Z","infoclimat.fr",1,"CC BY","https://creativecommons.org/licenses/by/2.0/fr/"
"000AE","FR","2B","Piedigriggio",9.1975323677063,42.445697145571,210,"2025-11-16T15:15:00Z","infoclimat.fr",1,"CC BY","https://creativecommons.org/licenses/by/2.0/fr/"
"000AF","FR","17","Boisredon",-0.5381,45.31482,50,"2018-03-28T10:30:00Z","infoclimat.fr",1,"CC BY","https://creativecommons.org/licenses/by/2.0/fr/"
"000AH","FR","67","Gambsheim",7.88286,48.69209,132,"2017-05-26T21:30:00Z","infoclimat.fr",1,"CC BY","https://creativecommons.org/licenses/by/2.0/fr/"
"000AI","FR","12","Millau (1)",3.06,44.1,475,"2018-07-09T14:40:00Z","infoclimat.fr",1,"CC BY","https://creativecommons.org/licenses/by/2.0/fr/"
"000AJ","FR","09","Léran",1.90958,42.98707,380,"2025-11-16T15:20:00Z","infoclimat.fr",1,"CC BY","https://creativecommons.org/licenses/by/2.0/fr/"
"000AK","FR","01","Saint-André-de-Corcy",4.95166,45.9259,296,"2022-04-02T08:30:00Z","infoclimat.fr",2,"NON-COMMERCIAL ONLY: CC BY NC","https://creativecommons.org/licenses/by-nc/2.0/fr/"
"000AL","FR","67","Siegen - Kaidenbourg",8.04113,48.95768,168,"2015-12-12T11:30:00Z","infoclimat.fr",1,"CC BY","https://creativecommons.org/licenses/by/2.0/fr/"
"000AO","CA","CA","Sainte-Thècle",-72.575,46.784,150,"2025-11-16T15:20:00Z","infoclimat.fr",1,"CC BY","https://creativecommons.org/licenses/by/2.0/fr/"
"000AR","FR","15","Paulhac",2.9051,45.0063,1125,"2016-12-28T15:00:00Z","infoclimat.fr",2,"NON-COMMERCIAL ONLY: CC BY NC","https://creativecommons.org/licenses/by-nc/2.0/fr/"
"000AS","FR","85","Ile-d'Yeu - Port Joinville",-2.34936,46.72515,16,"2025-11-16T15:20:00Z","infoclimat.fr",1,"CC BY","https://creativecommons.org/licenses/by/2.0/fr/"
"000AT","FR","76","Sausseuzemare-en-Caux",0.34167,49.66559,129,"2019-06-28T16:00:00Z","infoclimat.fr",2,"NON-COMMERCIAL ONLY: CC BY NC","https://creativecommons.org/licenses/by-nc/2.0/fr/"
"000AV","FR","51","Baye",3.762739,48.8539,177,"2025-11-16T15:20:00Z","infoclimat.fr",2,"NON-COMMERCIAL ONLY: CC BY NC","https://creativecommons.org/licenses/by-nc/2.0/fr/"
"000AX","FR","16","Saint-Laurent-de-Cognac",-0.40898,45.69695,40,"2025-11-16T15:00:00Z","infoclimat.fr",2,"NON-COMMERCIAL ONLY: CC BY NC","https://creativecommons.org/licenses/by-nc/2.0/fr/"
"000AY","FR","13","Les Pennes-Mirabeau",5.31306,43.41028,142,"2023-05-13T14:20:00Z","infoclimat.fr",1,"CC BY","https://creativecommons.org/licenses/by/2.0/fr/"
"000BA","FR","60","Grandfresnoy",2.65216,49.37218,72,"2020-04-27T10:30:00Z","infoclimat.fr",1,"CC BY","https://creativecommons.org/licenses/by/2.0/fr/"
"000BB","FR","68","Hohrod",7.12492,48.05396,417,"2021-05-09T12:50:00Z","infoclimat.fr",1,"CC BY","https://creativecommons.org/licenses/by/2.0/fr/"
"000BE","FR","64","Laruns-Artouste-Fabrèges",-0.3974,42.8802,1270,"2025-11-16T15:20:00Z","infoclimat.fr",1,"CC BY","https://creativecommons.org/licenses/by/2.0/fr/"
"000BQ","FR","10","Colombé-le-Sec",4.782931,48.255144,229,"2025-11-16T15:20:00Z","infoclimat.fr",1,"CC BY","https://creativecommons.org/licenses/by/2.0/fr/"
"000BG","FR","69","ENS - Lyon 7ème",4.8329426,45.7329787,169,"2025-11-16T15:20:00Z","infoclimat.fr",2,"NON-COMMERCIAL ONLY: CC BY NC","https://creativecommons.org/licenses/by-nc/2.0/fr/"
"000BN","FR","38","Voiron - Centre ville",5.59209,45.36395,300,"2025-11-16T15:20:00Z","infoclimat.fr",1,"CC BY","https://creativecommons.org/licenses/by/2.0/fr/"
"000BI","FR","48","Les Salces - Bonnecombe",3.16082,44.53326,1330,"2025-11-16T15:20:00Z","infoclimat.fr",2,"NON-COMMERCIAL ONLY: CC BY NC","https://creativecommons.org/licenses/by-nc/2.0/fr/"
"000BL","FR","13","Marseille - Saména",5.35002,43.22863,7,"2025-11-16T15:20:00Z","infoclimat.fr",1,"CC BY","https://creativecommons.org/licenses/by/2.0/fr/"
"000BM","FR","38","Theys (760m)",5.99534,45.30136,760,"2025-11-16T15:20:00Z","infoclimat.fr",2,"NON-COMMERCIAL ONLY: CC BY NC","https://creativecommons.org/licenses/by-nc/2.0/fr/"
"000BO","FR","17","Arces",-0.83178,45.58375,36,"2025-11-16T15:20:00Z","infoclimat.fr",1,"CC BY","https://creativecommons.org/licenses/by/2.0/fr/"
"000BS","FR","66","Cabestany",2.94122,42.68132,38,"2025-11-16T15:20:00Z","infoclimat.fr",2,"NON-COMMERCIAL ONLY: CC BY NC","https://creativecommons.org/licenses/by-nc/2.0/fr/"
"000BU","FR","83","Saint-Maximin-la-Sainte-Baume - Les Terriers",5.885216,43.462905,330,"2025-11-16T15:20:00Z","infoclimat.fr",1,"CC BY","https://creativecommons.org/licenses/by/2.0/fr/"
"000BV","FR","75","Paris 5ème - Tour Zamansky, Jussieu",2.355538,48.846883,122,"2025-11-16T15:20:00Z","infoclimat.fr",1,"CC BY","https://creativecommons.org/licenses/by/2.0/fr/"
"000BX","FR","22","Paimpol",-3.04375,48.77841,22,"2025-11-16T15:20:00Z","infoclimat.fr",2,"NON-COMMERCIAL ONLY: CC BY NC","https://creativecommons.org/licenses/by-nc/2.0/fr/"
"000BY","FR","13","Cabannes",4.95,43.86667,50,"2025-02-22T00:00:00Z","infoclimat.fr",1,"CC BY","https://creativecommons.org/licenses/by/2.0/fr/"
"000BZ","FR","30","Saint-Hilaire-de-Brethmas",4.12478,44.08003,130,"2025-11-16T15:20:00Z","infoclimat.fr",2,"NON-COMMERCIAL ONLY: CC BY NC","https://creativecommons.org/licenses/by-nc/2.0/fr/"
"000CA","FR","86","Leigné-les-Bois",0.70774,46.75871,140,"2022-10-23T00:00:00Z","infoclimat.fr",1,"CC BY","https://creativecommons.org/licenses/by/2.0/fr/"
"000CC","FR","63","Manglieu",3.35178,45.61197,430,"2022-12-09T19:00:00Z","infoclimat.fr",1,"CC BY","https://creativecommons.org/licenses/by/2.0/fr/"
"000CD","FR","38","St-Christophe-sur-Guiers - Le Habert de la Ruchère",5.80109,45.400129,1150,"2025-11-16T15:20:00Z","infoclimat.fr",2,"NON-COMMERCIAL ONLY: CC BY NC","https://creativecommons.org/licenses/by-nc/2.0/fr/"
"000CE","FR","65","Campistrous - Centre de Recherches Atmosphériques",0.3655783,43.1285133,601,"2025-11-16T15:20:00Z","infoclimat.fr",1,"CC BY","https://creativecommons.org/licenses/by/2.0/fr/"
"000CF","FR","46","Prudhomat - Castelnau",1.8154173374176,44.896298845491,129,"2025-11-16T15:20:00Z","infoclimat.fr",2,"NON-COMMERCIAL ONLY: CC BY NC","https://creativecommons.org/licenses/by-nc/2.0/fr/"
"000CI","FR","12","Anglars-Saint-Félix",2.21881,44.42309,465,"2025-11-16T15:20:00Z","infoclimat.fr",2,"NON-COMMERCIAL ONLY: CC BY NC","https://creativecommons.org/licenses/by-nc/2.0/fr/"
"000CJ","FR","73","Granier",6.6508,45.57315,1260,"2025-11-16T15:20:00Z","infoclimat.fr",2,"NON-COMMERCIAL ONLY: CC BY NC","https://creativecommons.org/licenses/by-nc/2.0/fr/"
"000CK","FR","84","Lagarde-d'Apt - Observatoire SIRENE",5.487573,44.000602,1100,"2025-11-16T15:20:00Z","infoclimat.fr",1,"CC BY","https://creativecommons.org/licenses/by/2.0/fr/"
"000CL","FR","13","Gréasque - La Diote",5.537502,43.42776,385,"2025-11-16T15:20:00Z","infoclimat.fr",2,"NON-COMMERCIAL ONLY: CC BY NC","https://creativecommons.org/licenses/by-nc/2.0/fr/"
"000CM","FR","69","Saint-Bonnet-le-Troncy",4.4278,46.08576,730,"2025-11-16T15:20:00Z","infoclimat.fr",2,"NON-COMMERCIAL ONLY: CC BY NC","https://creativecommons.org/licenses/by-nc/2.0/fr/"
"000CN","FR","07","Tournon-sur-Rhône",4.8462,45.064,123,"2025-11-16T15:20:00Z","infoclimat.fr",2,"NON-COMMERCIAL ONLY: CC BY NC","https://creativecommons.org/licenses/by-nc/2.0/fr/"
"000CO","FR","56","Nostang",-3.1882,47.7498,17,"2025-11-16T15:20:00Z","infoclimat.fr",2,"NON-COMMERCIAL ONLY: CC BY NC","https://creativecommons.org/licenses/by-nc/2.0/fr/"
"000CP","FR","27","Pressagny-l'Orgueilleux",1.45,49.13333,39,"2025-11-16T15:20:00Z","infoclimat.fr",2,"NON-COMMERCIAL ONLY: CC BY NC","https://creativecommons.org/licenses/by-nc/2.0/fr/"
"000CR","FR","61","Almenêches",0.11008,48.69709,170,"2025-11-16T15:20:00Z","infoclimat.fr",1,"CC BY","https://creativecommons.org/licenses/by/2.0/fr/"
"000CT","FR","75","Paris 6ème - Saint Germain des Prés",2.3354015,48.8516904,60,"2025-11-16T15:00:00Z","infoclimat.fr",2,"NON-COMMERCIAL ONLY: CC BY NC","https://creativecommons.org/licenses/by-nc/2.0/fr/"
"000CU","FR","67","Seltz",8.10757,48.8952,112,"2020-01-12T13:40:00Z","infoclimat.fr",1,"CC BY","https://creativecommons.org/licenses/by/2.0/fr/"
"000CV","BE","BE","Bruxelles - Woluve-Saint-Pierre",4.4655555555555555,50.8258333,95,"2025-11-16T15:20:00Z","infoclimat.fr",2,"NON-COMMERCIAL ONLY: CC BY NC","https://creativecommons.org/licenses/by-nc/2.0/fr/"
"000CW","FR","24","Mussidan",0.3629,45.03542,90,"2025-11-16T15:10:00Z","infoclimat.fr",2,"NON-COMMERCIAL ONLY: CC BY NC","https://creativecommons.org/licenses/by-nc/2.0/fr/"
"000CX","FR","27","Saint-Philbert-sur-Risle",0.64926,49.29611,50,"2025-11-16T15:20:00Z","infoclimat.fr",1,"CC BY","https://creativecommons.org/licenses/by/2.0/fr/"
"000CY","FR","43","Lapte - Verne",4.25372,45.16863,885,"2024-06-05T06:50:00Z","infoclimat.fr",2,"NON-COMMERCIAL ONLY: CC BY NC","https://creativecommons.org/licenses/by-nc/2.0/fr/"
"000CZ","FR","07","Peaugres",4.7292,45.2875,460,"2025-09-23T02:50:00Z","infoclimat.fr",1,"CC BY","https://creativecommons.org/licenses/by/2.0/fr/"
"000DB","FR","48","Recoules-de-Fumas",3.34532,44.64144,1040,"2018-12-02T14:30:00Z","infoclimat.fr",1,"CC BY","https://creativecommons.org/licenses/by/2.0/fr/"
"000DC","FR","12","Firmi",2.311542,44.547914,320,"2025-11-16T15:20:00Z","infoclimat.fr",1,"CC BY","https://creativecommons.org/licenses/by/2.0/fr/"
"000DD","FR","18","Vinon",2.82391,47.28543,170,"2019-11-27T19:40:00Z","infoclimat.fr",1,"CC BY","https://creativecommons.org/licenses/by/2.0/fr/"
"000DE","FR","74","Passy",6.68765,45.92028,890,"2025-11-16T15:20:00Z","infoclimat.fr",2,"NON-COMMERCIAL ONLY: CC BY NC","https://creativecommons.org/licenses/by-nc/2.0/fr/"
"000DF","FR","17","Arvert (2)",-1.124,45.74486,20,"2025-11-16T15:20:00Z","infoclimat.fr",2,"NON-COMMERCIAL ONLY: CC BY NC","https://creativecommons.org/licenses/by-nc/2.0/fr/"
"000DG","FR","74","Verchaix",6.6794,46.09772,895,"2025-11-16T15:20:00Z","infoclimat.fr",1,"CC BY","https://creativecommons.org/licenses/by/2.0/fr/"
"000DH","CH","CH","Grimentz",7.5833333,46.1833333,1710,"2025-11-16T15:20:00Z","infoclimat.fr",2,"NON-COMMERCIAL ONLY: CC BY NC","https://creativecommons.org/licenses/by-nc/2.0/fr/"
"000DI","FR","84","Saint-Saturnin-lès-Apt",5.38333,43.93333,318,"2025-11-16T15:20:00Z","infoclimat.fr",1,"CC BY","https://creativecommons.org/licenses/by/2.0/fr/"
"000DJ","FR","38","Veyrins-Thuellin",5.53333,45.61667,240,"2016-04-18T17:30:00Z","infoclimat.fr",1,"CC BY","https://creativecommons.org/licenses/by/2.0/fr/"
"000DM","FR","17","Saint-Georges-d'Oléron",-1.3607518,45.9683291,6,"2025-11-16T15:20:00Z","infoclimat.fr",2,"NON-COMMERCIAL ONLY: CC BY NC","https://creativecommons.org/licenses/by-nc/2.0/fr/"
"000DN","FR","76","Butot",1.022,49.611,176,"2025-11-16T15:00:00Z","infoclimat.fr",1,"CC BY","https://creativecommons.org/licenses/by/2.0/fr/"
"000HQ","FR","74","Villy-le-Bouveret",6.16303,46.04439,791,"2025-11-16T15:20:00Z","infoclimat.fr",1,"CC BY","https://creativecommons.org/licenses/by/2.0/fr/"
"000HR","FR","49","La Chapelle-Saint-Florent",-1.05631,47.33393,55,"2025-11-16T15:20:00Z","infoclimat.fr",2,"NON-COMMERCIAL ONLY: CC BY NC","https://creativecommons.org/licenses/by-nc/2.0/fr/"
"000DP","FR","11","Montréal",2.14122,43.1998,250,"2025-11-16T15:20:00Z","infoclimat.fr",1,"CC BY","https://creativecommons.org/licenses/by/2.0/fr/"
"000DQ","FR","11","Saint-Nazaire-d'Aude",2.89443,43.24518,21,"2025-11-16T15:20:00Z","infoclimat.fr",1,"CC BY","https://creativecommons.org/licenses/by/2.0/fr/"
"000DR","FR","23","Sainte-Feyre",1.91517,46.139,418,"2025-11-16T15:20:00Z","infoclimat.fr",2,"NON-COMMERCIAL ONLY: CC BY NC","https://creativecommons.org/licenses/by-nc/2.0/fr/"
"000DS","FR","03","Néris-les-Bains",2.65869,46.28688,385,"2025-11-16T15:20:00Z","infoclimat.fr",1,"CC BY","https://creativecommons.org/licenses/by/2.0/fr/"
"000DV","FR","38","Grenay",5.07987,45.66317,290,"2023-05-02T01:40:00Z","infoclimat.fr",1,"CC BY","https://creativecommons.org/licenses/by/2.0/fr/"
"000DX","FR","42","Burdignes",4.56832,45.27013,1000,"2016-07-18T17:30:00Z","infoclimat.fr",2,"NON-COMMERCIAL ONLY: CC BY NC","https://creativecommons.org/licenses/by-nc/2.0/fr/"
"000DZ","FR","33","Lacanau-Océan",-1.19415,45.00135,8,"2025-11-16T15:20:00Z","infoclimat.fr",1,"CC BY","https://creativecommons.org/licenses/by/2.0/fr/"
"000EB","FR","72","Valennes",0.81024,47.99616,163,"2025-11-16T15:20:00Z","infoclimat.fr",2,"NON-COMMERCIAL ONLY: CC BY NC","https://creativecommons.org/licenses/by-nc/2.0/fr/"
"000EC","FR","80","Fort-Mahon - Plage",1.55,50.33333,5,"2025-11-16T15:20:00Z","infoclimat.fr",2,"NON-COMMERCIAL ONLY: CC BY NC","https://creativecommons.org/licenses/by-nc/2.0/fr/"
"000ED","FR","25","Arc-sous-Cicon - 850m",6.4266186,47.0599796,850,"2024-08-02T06:10:00Z","infoclimat.fr",2,"NON-COMMERCIAL ONLY: CC BY NC","https://creativecommons.org/licenses/by-nc/2.0/fr/"
"000EF","FR","83","Cavalaire-sur-Mer",6.52715,43.17403,14,"2023-10-24T11:40:00Z","infoclimat.fr",1,"CC BY","https://creativecommons.org/licenses/by/2.0/fr/"
"000EH","FR","04","Annot",6.665225,43.9619095,750,"2025-10-23T16:30:00Z","infoclimat.fr",1,"CC BY","https://creativecommons.org/licenses/by/2.0/fr/"
"000EG","FR","33","Les Salles-de-Castillon",0.0311,44.9167,30,"2025-11-16T15:20:00Z","infoclimat.fr",1,"CC BY","https://creativecommons.org/licenses/by/2.0/fr/"
"000EP","FR","38","Villefontaine",5.14558,45.6125,321,"2025-11-16T14:30:00Z","infoclimat.fr",2,"NON-COMMERCIAL ONLY: CC BY NC","https://creativecommons.org/licenses/by-nc/2.0/fr/"
"000EI","FR","71","Saint-Loup-de-Varennes",4.861906,46.724861,190,"2025-11-16T15:20:00Z","infoclimat.fr",1,"CC BY","https://creativecommons.org/licenses/by/2.0/fr/"
"000EK","FR","91","Saclas",2.12349,48.35845,90,"2025-11-16T15:20:00Z","infoclimat.fr",2,"NON-COMMERCIAL ONLY: CC BY NC","https://creativecommons.org/licenses/by-nc/2.0/fr/"
"000II","FR","88","Boulaincourt",6.08252,48.37163,300,"2025-11-16T15:20:00Z","infoclimat.fr",2,"NON-COMMERCIAL ONLY: CC BY NC","https://creativecommons.org/licenses/by-nc/2.0/fr/"
"000EL","FR","76","Omonville",1.049089,49.795552,125,"2024-09-13T07:10:00Z","infoclimat.fr",2,"NON-COMMERCIAL ONLY: CC BY NC","https://creativecommons.org/licenses/by-nc/2.0/fr/"
"000ET","FR","43","Riotord",4.40376,45.23226,866,"2025-11-16T15:20:00Z","infoclimat.fr",2,"NON-COMMERCIAL ONLY: CC BY NC","https://creativecommons.org/licenses/by-nc/2.0/fr/"
"000EN","FR","66","Osséja",1.98192,42.41383,1350,"2025-11-16T06:00:00Z","infoclimat.fr",2,"NON-COMMERCIAL ONLY: CC BY NC","https://creativecommons.org/licenses/by-nc/2.0/fr/"
"000EQ","FR","11","Montredon-des-Corbières",2.93333,43.18333,35,"2018-09-18T08:00:00Z","infoclimat.fr",1,"CC BY","https://creativecommons.org/licenses/by/2.0/fr/"
"000EU","FR","07","Vernosc-lès-Annonay",4.71252,45.21676,406,"2025-11-16T15:20:00Z","infoclimat.fr",1,"CC BY","https://creativecommons.org/licenses/by/2.0/fr/"
"000EV","FR","33","Le Teich",-1.02155,44.63177,12,"2022-05-18T15:30:00Z","infoclimat.fr",1,"CC BY","https://creativecommons.org/licenses/by/2.0/fr/"
"000EW","FR","75","Paris 20ème - Porte de Vincennes",2.408503,48.847734,65,"2025-11-16T15:20:00Z","infoclimat.fr",1,"CC BY","https://creativecommons.org/licenses/by/2.0/fr/"
"000EX","PT","PT","Alcobaça",-8.97,39.55,160,"2022-09-22T06:10:00Z","infoclimat.fr",1,"CC BY","https://creativecommons.org/licenses/by/2.0/fr/"
"000OT","FR","22","Saint-Bihy",-2.97025,48.37875,220,"2025-11-16T15:00:00Z","infoclimat.fr",2,"NON-COMMERCIAL ONLY: CC BY NC","https://creativecommons.org/licenses/by-nc/2.0/fr/"
"000FB","FR","86","Neuville-de-Poitou",0.25,46.68333,105,"2025-11-16T15:20:00Z","infoclimat.fr",1,"CC BY","https://creativecommons.org/licenses/by/2.0/fr/"
"000FC","FR","68","Rimbach-près-Masevaux",6.95186,47.8282,560,"2025-11-16T15:20:00Z","infoclimat.fr",1,"CC BY","https://creativecommons.org/licenses/by/2.0/fr/"
"000FD","FR","25","Chapelle-des-Bois",6.090781,46.592749,1072,"2025-11-16T15:20:00Z","infoclimat.fr",1,"CC BY","https://creativecommons.org/licenses/by/2.0/fr/"
"000FE","FR","04","La Javie",6.35,44.16667,820,"2023-01-03T08:50:00Z","infoclimat.fr",2,"NON-COMMERCIAL ONLY: CC BY NC","https://creativecommons.org/licenses/by-nc/2.0/fr/"
"000FG","FR","42","Pélussin",4.68248,45.41808,400,"2025-11-16T15:20:00Z","infoclimat.fr",1,"CC BY","https://creativecommons.org/licenses/by/2.0/fr/"
"000FI","FR","01","Ambérieu-en-Bugey",5.3432,45.95885,255,"2025-11-16T15:20:00Z","infoclimat.fr",1,"CC BY","https://creativecommons.org/licenses/by/2.0/fr/"
"000FK","FR","07","Malbosc",4.07408,44.34736,480,"2025-11-16T15:20:00Z","infoclimat.fr",1,"CC BY","https://creativecommons.org/licenses/by/2.0/fr/"
"000FL","FR","85","Saint-Pierre-du-Chemin",-0.70095,46.69523,200,"2025-11-16T15:20:00Z","infoclimat.fr",1,"CC BY","https://creativecommons.org/licenses/by/2.0/fr/"
"000FM","FR","78","Cernay-la-Ville",1.97422,48.67324,174,"2024-04-29T11:10:00Z","infoclimat.fr",1,"CC BY","https://creativecommons.org/licenses/by/2.0/fr/"
"000FN","FR","22","Saint-Glen",-2.52348,48.35838,145,"2025-11-16T15:20:00Z","infoclimat.fr",2,"NON-COMMERCIAL ONLY: CC BY NC","https://creativecommons.org/licenses/by-nc/2.0/fr/"
"000FO","FR","34","Pomérols",3.49944,43.39139,40,"2020-06-22T12:20:00Z","infoclimat.fr",1,"CC BY","https://creativecommons.org/licenses/by/2.0/fr/"
"000FP","FR","19","Ségur-le-Château",1.30201,45.43078,367,"2025-11-16T15:20:00Z","infoclimat.fr",2,"NON-COMMERCIAL ONLY: CC BY NC","https://creativecommons.org/licenses/by-nc/2.0/fr/"
"000FR","FR","07","Borne - La Croix de Bauzon",4.089074,44.629074,1370,"2025-11-16T15:20:00Z","infoclimat.fr",2,"NON-COMMERCIAL ONLY: CC BY NC","https://creativecommons.org/licenses/by-nc/2.0/fr/"
"000FS","FR","23","Dontreix",2.56667,45.98333,717,"2025-11-16T15:20:00Z","infoclimat.fr",2,"NON-COMMERCIAL ONLY: CC BY NC","https://creativecommons.org/licenses/by-nc/2.0/fr/"
"000FT","FR","69","Blacé",4.64499,46.03185,460,"2025-11-16T15:20:00Z","infoclimat.fr",1,"CC BY","https://creativecommons.org/licenses/by/2.0/fr/"
"000FU","FR","26","Saint-Paul-Trois-Châteaux",4.76574,44.34909,107,"2025-11-16T15:20:00Z","infoclimat.fr",2,"NON-COMMERCIAL ONLY: CC BY NC","https://creativecommons.org/licenses/by-nc/2.0/fr/"
"000FV","FR","09","Bélesta",1.93325,42.90228,485,"2025-11-16T15:20:00Z","infoclimat.fr",1,"CC BY","https://creativecommons.org/licenses/by/2.0/fr/"
"000GB","FR","57","Wintersbourg",7.18991,48.78583,320,"2025-11-16T15:20:00Z","infoclimat.fr",2,"NON-COMMERCIAL ONLY: CC BY NC","https://creativecommons.org/licenses/by-nc/2.0/fr/"
"000FW","FR","15","Massiac",3.19759,45.25551,545,"2025-11-16T15:20:00Z","infoclimat.fr",1,"CC BY","https://creativecommons.org/licenses/by/2.0/fr/"
"000FX","FR","01","Pont-d'Ain",5.3368,46.04789,236,"2025-11-16T15:10:00Z","infoclimat.fr",2,"NON-COMMERCIAL ONLY: CC BY NC","https://creativecommons.org/licenses/by-nc/2.0/fr/"
"000FY","FR","79","Sainte-Ouenne",-0.448271,46.443049,76,"2025-11-16T15:20:00Z","infoclimat.fr",1,"CC BY","https://creativecommons.org/licenses/by/2.0/fr/"
"000FZ","FR","23","Guéret",1.87466,46.17823,422,"2023-02-05T15:00:00Z","infoclimat.fr",2,"NON-COMMERCIAL ONLY: CC BY NC","https://creativecommons.org/licenses/by-nc/2.0/fr/"
"000GC","FR","07","Annonay",4.67694,45.236162,310,"2019-11-12T16:40:00Z","infoclimat.fr",1,"CC BY","https://creativecommons.org/licenses/by/2.0/fr/"
"000GM","FR","69","Yzeron",4.59045,45.70729,723,"2025-11-16T15:20:00Z","infoclimat.fr",1,"CC BY","https://creativecommons.org/licenses/by/2.0/fr/"
"000GD","IT","IT","Loano (SV)",8.251251,44.133031,30,"2025-11-16T15:20:00Z","infoclimat.fr",1,"CC BY","https://creativecommons.org/licenses/by/2.0/fr/"
"000GF","FR","81","Castres",2.22,43.66,276,"2025-11-16T15:20:00Z","infoclimat.fr",1,"CC BY","https://creativecommons.org/licenses/by/2.0/fr/"
"000GG","FR","06","Clans",7.14797,43.99593,665,"2024-04-07T14:10:00Z","infoclimat.fr",1,"CC BY","https://creativecommons.org/licenses/by/2.0/fr/"
"000GH","FR","06","Ilonse",7.09854,44.02943,1000,"2023-07-26T02:40:00Z","infoclimat.fr",1,"CC BY","https://creativecommons.org/licenses/by/2.0/fr/"
"000GI","FR","35","Hédé-Bazouges ",-1.8,48.3,70,"2025-11-16T15:20:00Z","infoclimat.fr",1,"CC BY","https://creativecommons.org/licenses/by/2.0/fr/"
"000GJ","FR","65","Arcizans-Avant",-0.1,42.98333,645,"2021-08-09T21:00:00Z","infoclimat.fr",2,"NON-COMMERCIAL ONLY: CC BY NC","https://creativecommons.org/licenses/by-nc/2.0/fr/"
"000GK","FR","30","Thoiras",3.918016,44.081944,200,"2025-11-16T15:20:00Z","infoclimat.fr",2,"NON-COMMERCIAL ONLY: CC BY NC","https://creativecommons.org/licenses/by-nc/2.0/fr/"
"000GL","FR","17","Aytré-Plage",-1.124326,46.12,2,"2023-09-20T13:10:00Z","infoclimat.fr",2,"NON-COMMERCIAL ONLY: CC BY NC","https://creativecommons.org/licenses/by-nc/2.0/fr/"
"000GN","FR","88","Vieux-Moulin",6.99949,48.39509,404,"2025-11-16T15:20:00Z","infoclimat.fr",2,"NON-COMMERCIAL ONLY: CC BY NC","https://creativecommons.org/licenses/by-nc/2.0/fr/"
"000GO","FR","86","Mirebeau",0.18341,46.78743,150,"2025-11-16T15:20:00Z","infoclimat.fr",2,"NON-COMMERCIAL ONLY: CC BY NC","https://creativecommons.org/licenses/by-nc/2.0/fr/"
"000HC","FR","02","Variscourt",3.98574,49.41718,60,"2025-11-16T15:20:00Z","infoclimat.fr",2,"NON-COMMERCIAL ONLY: CC BY NC","https://creativecommons.org/licenses/by-nc/2.0/fr/"
"000GP","FR","53","L'Huisserie",-0.76872,48.02452,100,"2025-11-16T15:20:00Z","infoclimat.fr",2,"NON-COMMERCIAL ONLY: CC BY NC","https://creativecommons.org/licenses/by-nc/2.0/fr/"
"000GQ","FR","07","Charnas",4.74391,45.33691,300,"2025-11-16T15:20:00Z","infoclimat.fr",2,"NON-COMMERCIAL ONLY: CC BY NC","https://creativecommons.org/licenses/by-nc/2.0/fr/"
"000GR","FR","67","Kogenheim",7.54297,48.33737,162,"2025-11-16T15:15:00Z","infoclimat.fr",2,"NON-COMMERCIAL ONLY: CC BY NC","https://creativecommons.org/licenses/by-nc/2.0/fr/"
"000GS","FR","38","Lans-en-Vercors - Les Allières",5.6001955,45.0949758,1449,"2025-11-16T15:20:00Z","infoclimat.fr",2,"NON-COMMERCIAL ONLY: CC BY NC","https://creativecommons.org/licenses/by-nc/2.0/fr/"
"000GT","FR","33","Bouliac",-0.4841,44.81724,80,"2025-11-16T15:20:00Z","infoclimat.fr",2,"NON-COMMERCIAL ONLY: CC BY NC","https://creativecommons.org/licenses/by-nc/2.0/fr/"
"000GU","FR","22","Pleslin-Trigavou",-2.06667,48.53333,62,"2025-11-16T15:20:00Z","infoclimat.fr",1,"CC BY","https://creativecommons.org/licenses/by/2.0/fr/"
"000GV","FR","29","Ergué-Gabéric",-4.02223,47.99562,128,"2025-11-16T15:20:00Z","infoclimat.fr",1,"CC BY","https://creativecommons.org/licenses/by/2.0/fr/"
"000GX","FR","56","Neulliac",-2.98289,48.12836,78,"2025-11-16T15:10:00Z","infoclimat.fr",1,"CC BY","https://creativecommons.org/licenses/by/2.0/fr/"
"000GY","FR","22","Le Hinglé",-2.07847,48.39289,72,"2025-11-16T15:20:00Z","infoclimat.fr",1,"CC BY","https://creativecommons.org/licenses/by/2.0/fr/"
"000GZ","FR","22","Plestin-les-Grèves",-3.63056,48.65844,45,"2025-11-16T15:20:00Z","infoclimat.fr",1,"CC BY","https://creativecommons.org/licenses/by/2.0/fr/"
"000HB","FR","16","Nonaville",-0.08333,45.53333,68,"2025-11-16T15:20:00Z","infoclimat.fr",2,"NON-COMMERCIAL ONLY: CC BY NC","https://creativecommons.org/licenses/by-nc/2.0/fr/"
"000HD","FR","06","Nice - Pessicart",7.241889,43.721694,190,"2025-08-25T06:30:00Z","infoclimat.fr",1,"CC BY","https://creativecommons.org/licenses/by/2.0/fr/"
"000HF","FR","31","Toulouse - Cité de l'Espace",1.492788,43.58592,140,"2025-11-16T15:20:00Z","infoclimat.fr",1,"CC BY","https://creativecommons.org/licenses/by/2.0/fr/"
"000HH","FR","43","Saint-Germain-Laprade",3.96986,45.03871,680,"2024-04-22T06:50:00Z","infoclimat.fr",1,"CC BY","https://creativecommons.org/licenses/by/2.0/fr/"
"000HJ","FR","85","Réaumur",-0.80369,46.71964,155,"2021-06-20T20:50:00Z","infoclimat.fr",2,"NON-COMMERCIAL ONLY: CC BY NC","https://creativecommons.org/licenses/by-nc/2.0/fr/"
"000HL","FR","06","Vence",7.090734,43.719735,322,"2025-11-16T15:20:00Z","infoclimat.fr",1,"CC BY","https://creativecommons.org/licenses/by/2.0/fr/"
"000HM","FR","43","Yssingeaux",4.11667,45.13333,830,"2020-06-08T12:10:00Z","infoclimat.fr",1,"CC BY","https://creativecommons.org/licenses/by/2.0/fr/"
"000HN","CH","CH","Preonzo",8.998471,46.264288,254,"2025-11-16T15:20:00Z","infoclimat.fr",1,"CC BY","https://creativecommons.org/licenses/by/2.0/fr/"
"000HO","FR","14","Estrées-la-Campagne",-0.23333,49.01667,99,"2025-11-16T15:20:00Z","infoclimat.fr",2,"NON-COMMERCIAL ONLY: CC BY NC","https://creativecommons.org/licenses/by-nc/2.0/fr/"
"000HS","BE","BE","Dolembreux",5.6333333,50.5333333,242,"2025-11-16T15:20:00Z","infoclimat.fr",1,"CC BY","https://creativecommons.org/licenses/by/2.0/fr/"
"000HT","FR","38","Engins",5.6172,45.17957,905,"2025-11-16T15:20:00Z","infoclimat.fr",1,"CC BY","https://creativecommons.org/licenses/by/2.0/fr/"
"000HU","FR","56","Kernascléden",-3.31979,48.00622,108,"2025-11-16T15:15:00Z","infoclimat.fr",1,"CC BY","https://creativecommons.org/licenses/by/2.0/fr/"
"000IA","FR","38","Méaudre",5.528844,45.130646,976,"2025-11-16T15:20:00Z","infoclimat.fr",1,"CC BY","https://creativecommons.org/licenses/by/2.0/fr/"
"000IB","FR","76","Eu",1.42079,50.04606,40,"2021-07-17T13:50:00Z","infoclimat.fr",1,"CC BY","https://creativecommons.org/licenses/by/2.0/fr/"
"000IC","FR","72","Auvers-le-Hamon",-0.3517,47.90246,80,"2025-11-16T15:00:00Z","infoclimat.fr",2,"NON-COMMERCIAL ONLY: CC BY NC","https://creativecommons.org/licenses/by-nc/2.0/fr/"
"000ID","FR","82","Molières",1.400928,44.190024,200,"2025-11-16T15:20:00Z","infoclimat.fr",2,"NON-COMMERCIAL ONLY: CC BY NC","https://creativecommons.org/licenses/by-nc/2.0/fr/"
"000IF","FR","23","Châtelus-Malvaleix",2.01667,46.3,461,"2025-11-16T15:20:00Z","infoclimat.fr",1,"CC BY","https://creativecommons.org/licenses/by/2.0/fr/"
"000IK","FR","61","Perche en Nocé - Courboyer",0.6718,48.39708,180,"2025-11-16T15:20:00Z","infoclimat.fr",1,"CC BY","https://creativecommons.org/licenses/by/2.0/fr/"
"000LM","FR","21","Ancey",4.8267,47.3261,380,"2025-11-16T15:20:00Z","infoclimat.fr",2,"NON-COMMERCIAL ONLY: CC BY NC","https://creativecommons.org/licenses/by-nc/2.0/fr/"
"000LO","FR","24","Daglan",1.19236,44.74231,104,"2025-11-16T15:20:00Z","infoclimat.fr",2,"NON-COMMERCIAL ONLY: CC BY NC","https://creativecommons.org/licenses/by-nc/2.0/fr/"
"000LP","FR","49","Vern-d'Anjou",-0.83357,47.60119,43,"2025-11-16T15:20:00Z","infoclimat.fr",1,"CC BY","https://creativecommons.org/licenses/by/2.0/fr/"
"000LQ","FR","38","Beaucroissant",5.46942,45.34229,425,"2022-04-21T07:30:00Z","infoclimat.fr",1,"CC BY","https://creativecommons.org/licenses/by/2.0/fr/"
"000LR","FR","46","Saint-Cirq-Souillaguet",1.4614,44.70584,330,"2020-09-03T16:30:00Z","infoclimat.fr",2,"NON-COMMERCIAL ONLY: CC BY NC","https://creativecommons.org/licenses/by-nc/2.0/fr/"
"000LS","FR","67","Monswiller",7.37732,48.75511,177,"2025-11-16T15:20:00Z","infoclimat.fr",2,"NON-COMMERCIAL ONLY: CC BY NC","https://creativecommons.org/licenses/by-nc/2.0/fr/"
"000LU","FR","79","Frontenay-Rohan-Rohan",-0.53833,46.25276,30,"2025-11-16T15:20:00Z","infoclimat.fr",1,"CC BY","https://creativecommons.org/licenses/by/2.0/fr/"
"000LV","FR","17","Saint-Denis-d'Oléron",-1.37867,46.03496,10,"2018-06-03T06:40:00Z","infoclimat.fr",1,"CC BY","https://creativecommons.org/licenses/by/2.0/fr/"
"000LY","FR","86","Monts-sur-Guesnes",0.21145,46.91912,140,"2025-11-16T15:20:00Z","infoclimat.fr",2,"NON-COMMERCIAL ONLY: CC BY NC","https://creativecommons.org/licenses/by-nc/2.0/fr/"
"000LZ","FR","31","Saint-Hilaire",1.27809,43.42238,195,"2025-11-16T15:20:00Z","infoclimat.fr",1,"CC BY","https://creativecommons.org/licenses/by/2.0/fr/"
"000MA","FR","84","Beaumont-du-Ventoux - Mont Serein",5.26216,44.183436,1386,"2023-12-22T09:00:00Z","infoclimat.fr",2,"NON-COMMERCIAL ONLY: CC BY NC","https://creativecommons.org/licenses/by-nc/2.0/fr/"
"000MB","FR","41","Tour-en-Sologne",1.50525,47.54007,82,"2025-11-16T15:20:00Z","infoclimat.fr",1,"CC BY","https://creativecommons.org/licenses/by/2.0/fr/"
"000MD","FR","57","Lemberg",7.38652,49.00832,420,"2025-11-16T15:20:00Z","infoclimat.fr",2,"NON-COMMERCIAL ONLY: CC BY NC","https://creativecommons.org/licenses/by-nc/2.0/fr/"
"000MF","FR","47","Calignac",0.41513,44.13351,135,"2025-11-16T15:20:00Z","infoclimat.fr",1,"CC BY","https://creativecommons.org/licenses/by/2.0/fr/"
"000MG","FR","28","Romilly-sur-Aigre",1.28275,47.98225,101,"2025-11-16T15:20:00Z","infoclimat.fr",2,"NON-COMMERCIAL ONLY: CC BY NC","https://creativecommons.org/licenses/by-nc/2.0/fr/"
"000MT","FR","80","Amiens - Dury",2.271654,49.873748,80,"2025-11-16T15:20:00Z","infoclimat.fr",1,"CC BY","https://creativecommons.org/licenses/by/2.0/fr/"
"000MI","FR","94","Périgny",2.55537,48.69656,93,"2025-11-16T15:20:00Z","infoclimat.fr",2,"NON-COMMERCIAL ONLY: CC BY NC","https://creativecommons.org/licenses/by-nc/2.0/fr/"
"000MJ","FR","76","Petiville",0.5874,49.46078,15,"2025-11-16T15:20:00Z","infoclimat.fr",1,"CC BY","https://creativecommons.org/licenses/by/2.0/fr/"
"000MK","FR","64","Nay",-0.26667,43.18333,304,"2025-11-16T15:20:00Z","infoclimat.fr",2,"NON-COMMERCIAL ONLY: CC BY NC","https://creativecommons.org/licenses/by-nc/2.0/fr/"
"000ML","FR","16","Chassors",-0.204,45.714,31,"2025-11-16T15:20:00Z","infoclimat.fr",1,"CC BY","https://creativecommons.org/licenses/by/2.0/fr/"
"000MN","FR","11","Gruissan",3.101,43.10563,8,"2025-11-16T15:20:00Z","infoclimat.fr",1,"CC BY","https://creativecommons.org/licenses/by/2.0/fr/"
"000MO","FR","67","Belmont - Champ du Feu",7.260573,48.407637,1002,"2025-11-16T15:20:00Z","infoclimat.fr",1,"CC BY","https://creativecommons.org/licenses/by/2.0/fr/"
"ME014","FR","62","[MAE] Lycée Alexandre Ribot - SAINT OMER",2.258920097,50.74811047,20,"2025-01-07T05:10:00Z","infoclimat.fr",1,"CC BY","https://creativecommons.org/licenses/by/2.0/fr/"
"000MP","FR","37","Continvoir",0.21758,47.3882,81,"2025-11-16T15:20:00Z","infoclimat.fr",1,"CC BY","https://creativecommons.org/licenses/by/2.0/fr/"
"ME001","FR","29","[MAE] Lycée Roz Glas - QUIMPERLE",-3.5548537731171,47.886123376213,59,"2025-01-07T18:40:00Z","infoclimat.fr",1,"CC BY","https://creativecommons.org/licenses/by/2.0/fr/"
"ME050","FR","21","[MAE] Collège Le Chapitre - CHENÔVE",5.0032276153564,47.29634374008,268,"2021-03-26T12:00:00Z","infoclimat.fr",1,"CC BY","https://creativecommons.org/licenses/by/2.0/fr/"
"ME051","FR","33","[MAE] Lycée des Graves - GRADIGNAN",-0.62069950103762,44.759660609667,45,"2025-11-16T15:20:00Z","infoclimat.fr",1,"CC BY","https://creativecommons.org/licenses/by/2.0/fr/"
"ME003","FR","13","[MAE] Lycée Emile Zola - AIX EN PROVENCE",5.4591016769409,43.510894408718,143,"2025-11-16T15:20:00Z","infoclimat.fr",1,"CC BY","https://creativecommons.org/licenses/by/2.0/fr/"
"ME004","FR","03","[MAE] Collège Charlotte Delbo - TRONGET",3.0674639582634,46.420724663427,460,"2017-06-16T21:50:00Z","infoclimat.fr",1,"CC BY","https://creativecommons.org/licenses/by/2.0/fr/"
"ME005","FR","53","[MAE] Lycée Curie - Château-Gontier",-0.69821534156802,47.833344053896,38,"2025-11-16T15:20:00Z","infoclimat.fr",1,"CC BY","https://creativecommons.org/licenses/by/2.0/fr/"
"ME006","FR","70","[MAE] Collège des Milles Etangs - MELISEY",6.5705013513565,47.751351276521,330,"2020-07-06T05:40:00Z","infoclimat.fr",1,"CC BY","https://creativecommons.org/licenses/by/2.0/fr/"
"ME007","FR","87","[MAE] Collège Fernand Lagrange - PIERRE BUFFIERE",1.360728764534,45.692621864174,315,"2025-11-16T15:20:00Z","infoclimat.fr",1,"CC BY","https://creativecommons.org/licenses/by/2.0/fr/"
"ME008","FR","83","[MAE] Collège Frédéric Mistral - BORMES LES MIMOSAS",6.3471997061584,43.141116518296,18,"2025-02-14T06:50:00Z","infoclimat.fr",1,"CC BY","https://creativecommons.org/licenses/by/2.0/fr/"
"ME009","FR","21","[MAE] Collège Boris Vian - TALANT",4.9929064750671,47.339874864633,346,"2017-05-05T14:00:00Z","infoclimat.fr",1,"CC BY","https://creativecommons.org/licenses/by/2.0/fr/"
"ME010","FR","45","[MAE] Collège André Chêne - FLEURY LES AUBRAIS",1.9117135047912,47.933199289759,127,"2022-07-18T07:30:00Z","infoclimat.fr",1,"CC BY","https://creativecommons.org/licenses/by/2.0/fr/"
"ME011","FR","68","[MAE] Collège Jean Paul De Dadelsen - HIRSINGUE",7.2516483306885,47.590845177479,316,"2017-01-05T08:30:00Z","infoclimat.fr",1,"CC BY","https://creativecommons.org/licenses/by/2.0/fr/"
"ME012","FR","41","[MAE] Collège Lavoisier - OUCQUES",1.2978202342987,47.822352403877,124,"2025-11-16T15:20:00Z","infoclimat.fr",1,"CC BY","https://creativecommons.org/licenses/by/2.0/fr/"
"ME013","FR","27","[MAE] Lycée Clément Ader - BERNAY",0.60807879836432,49.097366070558,132,"2025-06-30T15:00:00Z","infoclimat.fr",1,"CC BY","https://creativecommons.org/licenses/by/2.0/fr/"
"ME015","FR","06","[MAE] Collège L'Eeau Vive - BREIL-SUR-ROYA",7.5139,43.9403667,308,"0000-00-00T00:00:00Z","infoclimat.fr",1,"CC BY","https://creativecommons.org/licenses/by/2.0/fr/"
"ME016","FR","11","[MAE] Collège Joseph Anglade - LEZIGNAN",2.7643918991089,43.1978008084,50,"2019-05-17T19:20:00Z","infoclimat.fr",1,"CC BY","https://creativecommons.org/licenses/by/2.0/fr/"
"ME017","FR","17","[MAE] Lycée Saint Exupéry - LA ROCHELLE",-1.17583333,46.1552778,12,"2025-11-16T15:20:00Z","infoclimat.fr",1,"CC BY","https://creativecommons.org/licenses/by/2.0/fr/"
"ME018","FR","2A","[MAE] Collège de Porto-Vecchio - PORTO-VECCHIO",9.27118333,41.6015611,27,"0000-00-00T00:00:00Z","infoclimat.fr",1,"CC BY","https://creativecommons.org/licenses/by/2.0/fr/"
"ME019","FR","31","[MAE] Collège Antonin Perbosc - AUTERIVE",1.46435833,43.3565556,188,"0000-00-00T00:00:00Z","infoclimat.fr",1,"CC BY","https://creativecommons.org/licenses/by/2.0/fr/"
"ME020","FR","24","[MAE] Lycée Joseph Vallot - LODEVE",3.31424444,43.7303528,171,"0000-00-00T00:00:00Z","infoclimat.fr",1,"CC BY","https://creativecommons.org/licenses/by/2.0/fr/"
"ME021","FR","45","[MAE] Collège André Malraux - ST JEAN DE LA RUELLE",1.86626667,47.904375,105,"0000-00-00T00:00:00Z","infoclimat.fr",1,"CC BY","https://creativecommons.org/licenses/by/2.0/fr/"
"ME022","FR","59","[MAE] Collège Jean-Baptiste Carpeaux - VALENCIENNE",3.51942778,50.3604361,25,"0000-00-00T00:00:00Z","infoclimat.fr",1,"CC BY","https://creativecommons.org/licenses/by/2.0/fr/"
"ME023","FR","60","[MAE] Collège Abel Didelet - ESTREES SAINT DENIS",2.64472222,49.4255556,69,"0000-00-00T00:00:00Z","infoclimat.fr",1,"CC BY","https://creativecommons.org/licenses/by/2.0/fr/"
"ME024","FR","62","[MAE] Collège et Lycée Lavoisier - AUCHEL",2.47627778,50.5069722,90,"2018-04-12T06:40:00Z","infoclimat.fr",1,"CC BY","https://creativecommons.org/licenses/by/2.0/fr/"
"ME025","FR","83","[MAE] Collège Alphonse Daudet - LA VALETTE DU VAR",5.98083333,43.1394444,69,"0000-00-00T00:00:00Z","infoclimat.fr",1,"CC BY","https://creativecommons.org/licenses/by/2.0/fr/"
"ME026","FR","88","[MAE] MFR les 4 Vents - RAMONCHAMP",6.7358333,47.8975,480,"0000-00-00T00:00:00Z","infoclimat.fr",1,"CC BY","https://creativecommons.org/licenses/by/2.0/fr/"
"ME027","FR","91","[MAE] Collège Les Gâtines - René Cassin - SAVIGNY ",2.3328995704651,48.685598788292,87,"0000-00-00T00:00:00Z","infoclimat.fr",1,"CC BY","https://creativecommons.org/licenses/by/2.0/fr/"
"ME028","FR","93","[MAE] Collège Jean Moulin - MONTREUIL",2.45,48.8588889,77,"0000-00-00T00:00:00Z","infoclimat.fr",1,"CC BY","https://creativecommons.org/licenses/by/2.0/fr/"
"ME029","FR","82","[MAE] Lycée Antoine Bourdelle - MONTAUBAN",1.370925,44.0135,108,"0000-00-00T00:00:00Z","infoclimat.fr",1,"CC BY","https://creativecommons.org/licenses/by/2.0/fr/"
"ME030","FR","71","[MAE] Collège Louise Michel - CHAGNY",4.7601002454758,46.90478741853,234,"2025-11-16T15:20:00Z","infoclimat.fr",1,"CC BY","https://creativecommons.org/licenses/by/2.0/fr/"
"ME031","FR","50","[MAE] Lycée Alexis de Tocqueville - CHERBOURG",-1.6038861,49.6292417,36,"0000-00-00T00:00:00Z","infoclimat.fr",1,"CC BY","https://creativecommons.org/licenses/by/2.0/fr/"
"ME032","FR","49","[MAE] Lycée Bourg Chevreau Ste Anne - SEGRE",-0.87430357933044,47.680110712583,26,"0000-00-00T00:00:00Z","infoclimat.fr",1,"CC BY","https://creativecommons.org/licenses/by/2.0/fr/"
"ME033","FR","29","[MAE] Collège Kerzouar - SAINT RENAN",-4.6180361,48.4266361,52,"0000-00-00T00:00:00Z","infoclimat.fr",1,"CC BY","https://creativecommons.org/licenses/by/2.0/fr/"
"ME034","FR","33","[MAE] Lycée Victor Louis - TALENCE",-0.5917917,44.8032556,21,"2025-10-19T10:30:00Z","infoclimat.fr",1,"CC BY","https://creativecommons.org/licenses/by/2.0/fr/"
"ME035","FR","71","[MAE] Lycée Louis Astier - PARAY LE MONIAL",4.1125889,46.4592972,245,"0000-00-00T00:00:00Z","infoclimat.fr",1,"CC BY","https://creativecommons.org/licenses/by/2.0/fr/"
"ME036","FR","58","[MAE] Lycée Raoul Follereau - NEVERS",3.1605528,47.00505,200,"0000-00-00T00:00:00Z","infoclimat.fr",1,"CC BY","https://creativecommons.org/licenses/by/2.0/fr/"
"ME038","FR","64","[MAE] Collège Jean Bouzet - PONTACQ",-0.1094389,43.1853389,360,"0000-00-00T00:00:00Z","infoclimat.fr",1,"CC BY","https://creativecommons.org/licenses/by/2.0/fr/"
"ME039","FR","21","[MAE] Collège Roland Dorgelès - LONGVIC",5.0605583,47.2947167,229,"0000-00-00T00:00:00Z","infoclimat.fr",1,"CC BY","https://creativecommons.org/licenses/by/2.0/fr/"
"ME040","FR","66","[MAE] Lycée Pablo Picasso - PERPIGNAN",2.9266417,42.6969889,43,"0000-00-00T00:00:00Z","infoclimat.fr",1,"CC BY","https://creativecommons.org/licenses/by/2.0/fr/"
"ME041","FR","972","[MAE] Collège Belle Etoile - SAINT JOSEPH",-61.0327833,14.6737833,220,"2018-04-28T18:40:00Z","infoclimat.fr",1,"CC BY","https://creativecommons.org/licenses/by/2.0/fr/"
"ME042","FR","87","[MAE] Collège Firmin Roz - LIMOGES",1.2905639,45.8675944,351,"0000-00-00T00:00:00Z","infoclimat.fr",1,"CC BY","https://creativecommons.org/licenses/by/2.0/fr/"
"ME043","FR","31","[MAE] Lycée Henri Matisse - CUGNAUX",1.352712,43.590963,174,"0000-00-00T00:00:00Z","infoclimat.fr",1,"CC BY","https://creativecommons.org/licenses/by/2.0/fr/"
"ME044","FR","35","[MAE] Lycée Bertrand d'Argentré - VITRE",-1.213333,48.120194,106,"2025-11-16T15:20:00Z","infoclimat.fr",1,"CC BY","https://creativecommons.org/licenses/by/2.0/fr/"
"ME045","FR","44","[MAE] Collège René Char - SAINT JOACHIM",-2.192478,47.381511,2,"0000-00-00T00:00:00Z","infoclimat.fr",1,"CC BY","https://creativecommons.org/licenses/by/2.0/fr/"
"ME046","FR","69","[MAE] Ecole Normale Supérieure - LYON",4.8331,45.733006,164,"0000-00-00T00:00:00Z","infoclimat.fr",1,"CC BY","https://creativecommons.org/licenses/by/2.0/fr/"
"ME047","FR","49","[MAE] Lycée Polyvalent Chevrollier - ANGERS",-0.5605,47.4535,39,"0000-00-00T00:00:00Z","infoclimat.fr",1,"CC BY","https://creativecommons.org/licenses/by/2.0/fr/"
"ME048","FR","14","[MAE] Collège Letot - BAYEUX",-0.71233,49.27483,59,"0000-00-00T00:00:00Z","infoclimat.fr",1,"CC BY","https://creativecommons.org/licenses/by/2.0/fr/"
"ME049","FR","04","[MAE] Lycée André Honnorat - BARCELONNETTE",6.641111,44.387778,1132,"2024-10-05T18:10:00Z","infoclimat.fr",1,"CC BY","https://creativecommons.org/licenses/by/2.0/fr/"
"ME052","FR","22","[MAE] Collège Thalassa - ERQUY",-2.4644389,48.6297194,9,"0000-00-00T00:00:00Z","infoclimat.fr",1,"CC BY","https://creativecommons.org/licenses/by/2.0/fr/"
"ME057","FR","00","[MAE] AJACCIO",8.738635,41.919229,123,"0000-00-00T00:00:00Z","infoclimat.fr",1,"CC BY","https://creativecommons.org/licenses/by/2.0/fr/"
"ME098","FR","75","[MAE] ESPE - PARIS",2.266687,48.845766,36,"2025-11-16T15:20:00Z","infoclimat.fr",1,"CC BY","https://creativecommons.org/licenses/by/2.0/fr/"
"ME054","FR","972","[MAE] Collège Belle Etoile - SAINT JOSEPH",-61.0327833,14.6737833,219,"0000-00-00T00:00:00Z","infoclimat.fr",1,"CC BY","https://creativecommons.org/licenses/by/2.0/fr/"
"ME099","FR","75","[MAE] LATMOS - PARIS ",2.355468,48.846882,122,"2025-11-16T15:20:00Z","infoclimat.fr",1,"CC BY","https://creativecommons.org/licenses/by/2.0/fr/"
"ME101","FR","83","[MAE] Collège Alphonse Karr - SAINT RAPHAEL",6.769031,43.433715,2,"2025-10-08T05:20:00Z","infoclimat.fr",1,"CC BY","https://creativecommons.org/licenses/by/2.0/fr/"
"ME109","FR","21","[MAE] Collège les Hautes Pailles - ECHENON",5.272244,47.111564,184,"2025-11-16T15:20:00Z","infoclimat.fr",1,"CC BY","https://creativecommons.org/licenses/by/2.0/fr/"
"ME107","FR","83","[MAE] Collège Lou Castellas - SOLLIES-PONT",6.045212,43.191541,83,"2023-11-15T11:10:00Z","infoclimat.fr",1,"CC BY","https://creativecommons.org/licenses/by/2.0/fr/"
"ME102","FR","38","[MAE] Collège Les Mattons - VIZILLE",5.775222,45.087092,297,"2025-06-16T06:40:00Z","infoclimat.fr",1,"CC BY","https://creativecommons.org/licenses/by/2.0/fr/"
"ME103","FR","43","[MAE] Collège du Lignon - CHAMBON SUR LIGNON",4.299064,45.058741,930,"2023-10-25T14:10:00Z","infoclimat.fr",1,"CC BY","https://creativecommons.org/licenses/by/2.0/fr/"
"ME104","FR","63","[MAE] Collège Jean Rostand - LES MARTRES DE VEYRE",3.197701,45.693583,332,"2023-02-13T15:20:00Z","infoclimat.fr",1,"CC BY","https://creativecommons.org/licenses/by/2.0/fr/"
"ME105","FR","76","[MAE] Collège l'Oiseau Blanc - CRIQUETOT L'ESNEVAL",0.264283,49.64162,119,"2025-11-16T15:20:00Z","infoclimat.fr",1,"CC BY","https://creativecommons.org/licenses/by/2.0/fr/"
"ME110","FR","51","[MAE] Collège Jean Moulin - SAINT MEMMIE",4.387885,48.946926,83,"2025-11-16T15:20:00Z","infoclimat.fr",1,"CC BY","https://creativecommons.org/licenses/by/2.0/fr/"
"ME106","FR","80","[MAE] Collège Jacques Prévert - NOUVION",1.780832,50.214948,36,"2025-11-16T15:20:00Z","infoclimat.fr",1,"CC BY","https://creativecommons.org/licenses/by/2.0/fr/"
"ME108","FR","15","[MAE] Collège La Ponétie - AURILLAC",2.44879,44.903911,600,"2025-11-16T15:20:00Z","infoclimat.fr",1,"CC BY","https://creativecommons.org/licenses/by/2.0/fr/"
"ME112","FR","80","[MAE] Collège Jules Ferry - CONTY",2.148582,49.735242,95,"2025-11-16T15:20:00Z","infoclimat.fr",1,"CC BY","https://creativecommons.org/licenses/by/2.0/fr/"
"ME111","FR","80","[MAE] Coll. M. Leclerc de Hauteclocque - Beaucamps",1.785081,49.840373,190,"2025-11-16T15:20:00Z","infoclimat.fr",1,"CC BY","https://creativecommons.org/licenses/by/2.0/fr/"
"ME117","FR","29","[MAE] Cité Scolaire Jean Moulin - CHATEAULIN",-4.087861,48.193867,39,"2025-11-16T15:20:00Z","infoclimat.fr",1,"CC BY","https://creativecommons.org/licenses/by/2.0/fr/"
"ME114","FR","54","[MAE] Collège Amiral de Rigny - TOUL",5.88905,48.678015,212,"2025-11-16T15:20:00Z","infoclimat.fr",1,"CC BY","https://creativecommons.org/licenses/by/2.0/fr/"
"ME116","FR","53","[MAE] Collège Léo Ferré - AMBRIERES LES VALLEES ",-0.63354,48.397549,139,"2025-11-16T15:20:00Z","infoclimat.fr",1,"CC BY","https://creativecommons.org/licenses/by/2.0/fr/"
"ME113","FR","91","[MAE] Lycée Parc de Vilgénis - MASSY",2.253404,48.731963,83,"2025-11-16T15:20:00Z","infoclimat.fr",1,"CC BY","https://creativecommons.org/licenses/by/2.0/fr/"
"ME115","FR","78","[MAE] Collège les Saules - GUYANCOURT",2.054172,48.784858,164,"2017-11-13T12:00:00Z","infoclimat.fr",1,"CC BY","https://creativecommons.org/licenses/by/2.0/fr/"
"ME120","FR","33","[MAE] Lycée de la Mer - GUJAN-MESTRAS ",-1.059218,44.643818,2,"2025-08-27T08:50:00Z","infoclimat.fr",1,"CC BY","https://creativecommons.org/licenses/by/2.0/fr/"
"ME129","FR","47","[MAE] EREA MC Leriche - VILLENEUVE-SUR-LOT",0.744678,44.409006,67,"2025-11-16T15:20:00Z","infoclimat.fr",1,"CC BY","https://creativecommons.org/licenses/by/2.0/fr/"
"ME127","FR","974","[MAE] Lycée Léon de Lepervanche - LE PORT ",55.305514,-20.931442,15,"2025-11-16T15:20:00Z","infoclimat.fr",1,"CC BY","https://creativecommons.org/licenses/by/2.0/fr/"
"ME118","FR","11","[MAE] Collège Joseph Anglade - LEZIGNAN CORBIERES",2.765773,43.196971,50,"2022-07-05T09:20:00Z","infoclimat.fr",1,"CC BY","https://creativecommons.org/licenses/by/2.0/fr/"
"ME119","FR","55","[MAE] Cité Scolaire Alfred Kastler - STENAY",5.197367,49.485851,195,"2025-11-16T15:20:00Z","infoclimat.fr",1,"CC BY","https://creativecommons.org/licenses/by/2.0/fr/"
"ME124","FR","33","[MAE] Collège Les Eyquems - MERIGNAC",-0.645302,44.827203,38,"2023-04-17T06:20:00Z","infoclimat.fr",1,"CC BY","https://creativecommons.org/licenses/by/2.0/fr/"
"ME121","FR","66","[MAE] Lycée Agricole de Théza - Théza",2.938229,42.64567,15,"2025-11-16T15:20:00Z","infoclimat.fr",1,"CC BY","https://creativecommons.org/licenses/by/2.0/fr/"
"ME126","FR","67","Lycée Couffignal - Strasbourg",7.748371,48.560504,141,"2025-11-16T15:10:00Z","infoclimat.fr",1,"CC BY","https://creativecommons.org/licenses/by/2.0/fr/"
"ME123","FR","25","[MAE] Collège Lou Blazer - MONTBÉLIARD ",6.790347,47.498495,349,"2025-11-16T15:20:00Z","infoclimat.fr",1,"CC BY","https://creativecommons.org/licenses/by/2.0/fr/"
"ME125","FR","73","[MAE] Collège de SAINT-ETIENNE-DE-CUINES",6.291086,45.340841,495,"2025-11-16T15:20:00Z","infoclimat.fr",1,"CC BY","https://creativecommons.org/licenses/by/2.0/fr/"
"ME137","FR","41","[MAE] Collège Les Provinces - BLOIS",1.3392437,47.6010799,108,"2025-11-16T15:20:00Z","infoclimat.fr",1,"CC BY","https://creativecommons.org/licenses/by/2.0/fr/"
"ME128","FR","69","[MAE] Collège Honoré De Balzac - VENISSIEUX",4.861664,45.725547,174,"2025-11-16T15:20:00Z","infoclimat.fr",1,"CC BY","https://creativecommons.org/licenses/by/2.0/fr/"
"ME130","FR","31","[MAE] Collège Jules Vallès - PORTET SUR GARONNE",1.410252,43.530466,150,"2022-05-28T09:40:00Z","infoclimat.fr",1,"CC BY","https://creativecommons.org/licenses/by/2.0/fr/"
"ME131","FR","62","[MAE] Collège Lavoisier - AUCHEL",2.475679,50.5073,89,"0000-00-00T00:00:00Z","infoclimat.fr",1,"CC BY","https://creativecommons.org/licenses/by/2.0/fr/"
"ME132","FR","30","[MAE] Collège Paul Valéry - ROQUEMAURE ",4.780211,44.048139,24,"2019-10-31T10:00:00Z","infoclimat.fr",1,"CC BY","https://creativecommons.org/licenses/by/2.0/fr/"
"ME134","FR","47","[MAE] Lycée Marguerite Filhol - FUMEL ",0.958133,44.498189,128,"2025-11-16T15:20:00Z","infoclimat.fr",1,"CC BY","https://creativecommons.org/licenses/by/2.0/fr/"
"ME133","MA","00","[MAE] Groupe Scolaire La Résidence - CASABLANCA",-7.614952,33.574382,45,"2017-12-19T17:30:00Z","infoclimat.fr",1,"CC BY","https://creativecommons.org/licenses/by/2.0/fr/"
"ME135","FR","28","[MAE] Collège Louis Blériot - TOURY",1.929377,48.190296,134,"2019-04-08T08:40:00Z","infoclimat.fr",1,"CC BY","https://creativecommons.org/licenses/by/2.0/fr/"
"ME136","FR","04","[MAE] Lycée André Honnorat - BARCELONNETTE",6.6529124,44.3885154,1145,"2020-02-17T23:10:00Z","infoclimat.fr",1,"CC BY","https://creativecommons.org/licenses/by/2.0/fr/"
"000NH","FR","84","Pertuis - Le Farigoulier",5.524761,43.66577,195,"2025-11-16T15:20:00Z","infoclimat.fr",2,"NON-COMMERCIAL ONLY: CC BY NC","https://creativecommons.org/licenses/by-nc/2.0/fr/"
"000MQ","FR","01","Priay",5.28775,46.00188,277,"2025-11-16T15:00:00Z","infoclimat.fr",2,"NON-COMMERCIAL ONLY: CC BY NC","https://creativecommons.org/licenses/by-nc/2.0/fr/"
"000MR","FR","85","Mortagne-sur-Sèvre",-0.94738,46.99203,131,"2025-11-16T15:20:00Z","infoclimat.fr",2,"NON-COMMERCIAL ONLY: CC BY NC","https://creativecommons.org/licenses/by-nc/2.0/fr/"
"000MS","FR","88","Xonrupt-Longemer - Le Poli",6.9187019,48.0763775,785,"2025-11-16T15:20:00Z","infoclimat.fr",1,"CC BY","https://creativecommons.org/licenses/by/2.0/fr/"
"000MU","FR","60","Bussy",2.984209,49.626997,50,"2019-08-15T17:30:00Z","infoclimat.fr",1,"CC BY","https://creativecommons.org/licenses/by/2.0/fr/"
"000MY","FR","74","Sallanches",6.63162,45.94423,571,"2025-11-16T15:20:00Z","infoclimat.fr",2,"NON-COMMERCIAL ONLY: CC BY NC","https://creativecommons.org/licenses/by-nc/2.0/fr/"
"000MV","FR","12","Millau",3.08333,44.1,475,"2025-11-16T15:20:00Z","infoclimat.fr",1,"CC BY","https://creativecommons.org/licenses/by/2.0/fr/"
"000MW","FR","37","Le Grand-Pressigny",0.8038,46.92017,72,"2025-11-16T15:20:00Z","infoclimat.fr",1,"CC BY","https://creativecommons.org/licenses/by/2.0/fr/"
"000MX","FR","06","Saint-Vallier-de-Thiey",6.8443,43.69539,723,"2025-11-16T15:20:00Z","infoclimat.fr",1,"CC BY","https://creativecommons.org/licenses/by/2.0/fr/"
"000MZ","FR","87","Saint-Just-le-Martel",1.38829,45.86351,320,"2025-11-16T15:20:00Z","infoclimat.fr",1,"CC BY","https://creativecommons.org/licenses/by/2.0/fr/"
"000NB","FR","85","Pouzauges",-0.83619,46.77941,125,"2025-11-16T15:15:00Z","infoclimat.fr",2,"NON-COMMERCIAL ONLY: CC BY NC","https://creativecommons.org/licenses/by-nc/2.0/fr/"
"000NC","FR","51","Mairy-sur-Marne",4.41139,48.88144,93,"2025-11-16T15:20:00Z","infoclimat.fr",1,"CC BY","https://creativecommons.org/licenses/by/2.0/fr/"
"000ND","FR","09","Mirepoix",1.8735,43.08773,305,"2025-11-16T15:20:00Z","infoclimat.fr",2,"NON-COMMERCIAL ONLY: CC BY NC","https://creativecommons.org/licenses/by-nc/2.0/fr/"
"000NF","FR","06","Cipières",6.95185,43.78119,823,"2025-11-16T15:20:00Z","infoclimat.fr",1,"CC BY","https://creativecommons.org/licenses/by/2.0/fr/"
"000NG","FR","60","Saint-Germain-la-Poterie",1.981274,49.448603,172,"2025-11-16T15:20:00Z","infoclimat.fr",1,"CC BY","https://creativecommons.org/licenses/by/2.0/fr/"
"000NI","FR","11","Sallèles-d'Aude",2.94614,43.25953,21,"2025-11-16T15:20:00Z","infoclimat.fr",1,"CC BY","https://creativecommons.org/licenses/by/2.0/fr/"
"000NJ","FR","43","Tence",4.29166,45.11503,891,"2025-11-16T15:20:00Z","infoclimat.fr",1,"CC BY","https://creativecommons.org/licenses/by/2.0/fr/"
"ME138","FR","06","[MAE] Centre International de Valbonne - VALBONNE",7.041474200000039,43.6215604,175,"2025-11-16T15:20:00Z","infoclimat.fr",1,"CC BY","https://creativecommons.org/licenses/by/2.0/fr/"
"000NK","FR","68","Geishouse",7.05843,47.87972,660,"2025-11-16T15:20:00Z","infoclimat.fr",2,"NON-COMMERCIAL ONLY: CC BY NC","https://creativecommons.org/licenses/by-nc/2.0/fr/"
"000NL","FR","04","Saint-Paul-sur-Ubaye - Maljasset",6.84,44.59295,1900,"2025-11-16T15:20:00Z","infoclimat.fr",1,"CC BY","https://creativecommons.org/licenses/by/2.0/fr/"
"000NM","FR","56","Priziac",-3.41667,48.06667,150,"2025-11-16T15:20:00Z","infoclimat.fr",2,"NON-COMMERCIAL ONLY: CC BY NC","https://creativecommons.org/licenses/by-nc/2.0/fr/"
"000NN","ES","ES","Chert/Xert",0.159285,40.521986,452,"2025-11-16T15:20:00Z","infoclimat.fr",2,"NON-COMMERCIAL ONLY: CC BY NC","https://creativecommons.org/licenses/by-nc/2.0/fr/"
"000NP","FR","13","Simiane-Collongue",5.441715,43.440777,240,"2025-11-16T15:20:00Z","infoclimat.fr",2,"NON-COMMERCIAL ONLY: CC BY NC","https://creativecommons.org/licenses/by-nc/2.0/fr/"
"000NQ","FR","29","Camaret-sur-Mer",-4.59615,48.27497,43,"2023-07-31T07:50:00Z","infoclimat.fr",1,"CC BY","https://creativecommons.org/licenses/by/2.0/fr/"
